"","Zip","City","State","Latitude","Longitude","Timezone","Daylight.savings.time.flag","geopoint"
"1",71937,"Cove","AR",34.398483,-94.39398,-6,1,"34.398483,-94.39398"
"2",72044,"Edgemont","AR",35.624351,-92.16056,-6,1,"35.624351,-92.16056"
"3",56171,"Sherburn","MN",43.660847,-94.74357,-6,1,"43.660847,-94.74357"
"4",49430,"Lamont","MI",43.010337,-85.89754,-5,1,"43.010337,-85.89754"
"5",52585,"Richland","IA",41.194129,-91.98027,-6,1,"41.194129,-91.98027"
"6",47520,"Cannelton","IN",37.934311,-86.67821,-5,0,"37.934311,-86.67821"
"7",49464,"Zeeland","MI",42.829252,-85.99621,-5,1,"42.829252,-85.99621"
"8",49919,"Covington","MI",46.559834,-88.52201,-5,1,"46.559834,-88.52201"
"9",52401,"Cedar Rapids","IA",41.97545,-91.65912,-6,1,"41.97545,-91.65912"
"10",35979,"Higdon","AL",34.831242,-85.61564,-6,1,"34.831242,-85.61564"
"11",36350,"Midland City","AL",31.319083,-85.48718,-6,1,"31.319083,-85.48718"
"12",38401,"Columbia","TN",35.619784,-87.03565,-6,1,"35.619784,-87.03565"
"13",41065,"Muses Mills","KY",38.3481,-83.718626,-5,1,"38.3481,-83.718626"
"14",55302,"Annandale","MN",45.246631,-94.11692,-6,1,"45.246631,-94.11692"
"15",29607,"Greenville","SC",34.825592,-82.34099,-5,1,"34.825592,-82.34099"
"16",31150,"Atlanta","GA",33.844371,-84.47405,-5,1,"33.844371,-84.47405"
"17",31646,"Saint George","GA",30.518903,-82.08063,-5,1,"30.518903,-82.08063"
"18",31826,"Shiloh","GA",32.803518,-84.69384,-5,1,"32.803518,-84.69384"
"19",17932,"Frackville","PA",40.649109,-76.503339,-5,1,"40.649109,-76.503339"
"20",18947,"Pipersville","PA",40.426391,-75.11842,-5,1,"40.426391,-75.11842"
"21",20227,"Washington","DC",38.893311,-77.014647,-5,1,"38.893311,-77.014647"
"22",14043,"Depew","NY",42.904958,-78.7006,-5,1,"42.904958,-78.7006"
"23",15278,"Pittsburgh","PA",40.434436,-80.024817,-5,1,"40.434436,-80.024817"
"24",15482,"Star Junction","PA",40.062849,-79.76338,-5,1,"40.062849,-79.76338"
"25",33446,"Delray Beach","FL",26.452473,-80.16509,-5,1,"26.452473,-80.16509"
"26",27915,"Avon","NC",35.354252,-75.50417,-5,1,"35.354252,-75.50417"
"27",23328,"Chesapeake","VA",36.7085,-76.278531,-5,1,"36.7085,-76.278531"
"28",24062,"Blacksburg","VA",37.174227,-80.395698,-5,1,"37.174227,-80.395698"
"29",26253,"Beverly","WV",38.827205,-79.89057,-5,1,"38.827205,-79.89057"
"30",2472,"Watertown","MA",42.371296,-71.18196,-5,1,"42.371296,-71.18196"
"31",7309,"Jersey City","NJ",40.73276,-74.075485,-5,1,"40.73276,-74.075485"
"32",623,"Cabo Rojo","PR",18.08643,-67.15222,-4,0,"18.08643,-67.15222"
"33",52163,"Protivin","IA",43.21661,-92.09219,-6,1,"43.21661,-92.09219"
"34",52216,"Clarence","IA",41.888182,-91.04567,-6,1,"41.888182,-91.04567"
"35",53031,"Hingham","WI",43.639395,-87.915705,-6,1,"43.639395,-87.915705"
"36",60651,"Chicago","IL",41.901485,-87.74055,-6,1,"41.901485,-87.74055"
"37",62090,"Venice","IL",38.67065,-90.17052,-6,1,"38.67065,-90.17052"
"38",62420,"Casey","IL",39.299447,-87.99863,-6,1,"39.299447,-87.99863"
"39",64503,"Saint Joseph","MO",39.741794,-94.83237,-6,1,"39.741794,-94.83237"
"40",65325,"Cole Camp","MO",38.451021,-93.19156,-6,1,"38.451021,-93.19156"
"41",65638,"Drury","MO",36.851944,-92.33081,-6,1,"36.851944,-92.33081"
"42",74801,"Shawnee","OK",35.327341,-96.93544,-6,1,"35.327341,-96.93544"
"43",75475,"Randolph","TX",33.485315,-96.25525,-6,1,"33.485315,-96.25525"
"44",75757,"Bullard","TX",32.136787,-95.3671,-6,1,"32.136787,-95.3671"
"45",63179,"Saint Louis","MO",38.6531,-90.243462,-6,1,"38.6531,-90.243462"
"46",63436,"Center","MO",39.501697,-91.5367,-6,1,"39.501697,-91.5367"
"47",57440,"Frankfort","SD",44.857069,-98.27191,-6,1,"44.857069,-98.27191"
"48",72112,"Newport","AR",35.586065,-91.24695,-6,1,"35.586065,-91.24695"
"49",72714,"Bella Vista","AR",36.458041,-94.23551,-6,1,"36.458041,-94.23551"
"50",99671,"Stebbins","AK",63.511893,-162.27463,-9,1,"63.511893,-162.27463"
"51",97304,"Salem","OR",44.970181,-123.08033,-8,1,"44.970181,-123.08033"
"52",97414,"Broadbent","OR",42.977978,-124.1716,-8,1,"42.977978,-124.1716"
"53",81148,"Romeo","CO",37.171583,-105.98648,-7,1,"37.171583,-105.98648"
"54",81423,"Norwood","CO",38.082231,-108.2586,-7,1,"38.082231,-108.2586"
"55",81505,"Grand Junction","CO",39.112514,-108.60506,-7,1,"39.112514,-108.60506"
"56",81624,"Collbran","CO",39.220166,-107.93414,-7,1,"39.220166,-107.93414"
"57",82718,"Gillette","WY",43.939968,-105.52445,-7,1,"43.939968,-105.52445"
"58",89317,"Lund","NV",38.835421,-115.02628,-8,1,"38.835421,-115.02628"
"59",92232,"Calexico","CA",33.026203,-115.284581,-8,1,"33.026203,-115.284581"
"60",93227,"Goshen","CA",36.357151,-119.425371,-8,1,"36.357151,-119.425371"
"61",93234,"Huron","CA",36.209815,-120.0847,-8,1,"36.209815,-120.0847"
"62",93529,"June Lake","CA",37.765218,-119.07769,-8,1,"37.765218,-119.07769"
"63",93761,"Fresno","CA",36.746375,-119.639658,-8,1,"36.746375,-119.639658"
"64",94931,"Cotati","CA",38.328614,-122.71044,-8,1,"38.328614,-122.71044"
"65",95322,"Gustine","CA",37.187494,-121.03232,-8,1,"37.187494,-121.03232"
"66",30334,"Atlanta","GA",33.702657,-84.439127,-5,1,"33.702657,-84.439127"
"67",36879,"Waverly","AL",32.733511,-85.55322,-6,1,"32.733511,-85.55322"
"68",38017,"Collierville","TN",35.057224,-89.67417,-6,1,"35.057224,-89.67417"
"69",43984,"New Rumley","OH",40.29649,-81.102502,-5,1,"40.29649,-81.102502"
"70",46787,"South Whitley","IN",41.080236,-85.62796,-5,0,"41.080236,-85.62796"
"71",31606,"Valdosta","GA",30.802411,-83.19624,-5,1,"30.802411,-83.19624"
"72",55992,"Zumbrota","MN",44.297157,-92.68312,-6,1,"44.297157,-92.68312"
"73",13827,"Owego","NY",42.120274,-76.25874,-5,1,"42.120274,-76.25874"
"74",14739,"Friendship","NY",42.192384,-78.14308,-5,1,"42.192384,-78.14308"
"75",15227,"Pittsburgh","PA",40.377869,-79.97516,-5,1,"40.377869,-79.97516"
"76",16877,"Warriors Mark","PA",40.721787,-78.08561,-5,1,"40.721787,-78.08561"
"77",31732,"Cedar Springs","GA",31.169794,-85.0557,-5,1,"31.169794,-85.0557"
"78",32621,"Bronson","FL",29.447069,-82.60452,-5,1,"29.447069,-82.60452"
"79",21634,"Fishing Creek","MD",38.288409,-76.20146,-5,1,"38.288409,-76.20146"
"80",24008,"Roanoke","VA",37.274175,-79.95786,-5,1,"37.274175,-79.95786"
"81",25645,"Stirrat","WV",37.833204,-81.902401,-5,1,"37.833204,-81.902401"
"82",34447,"Homosassa Springs","FL",28.804911,-82.574264,-5,1,"28.804911,-82.574264"
"83",35004,"Moody","AL",33.606379,-86.50249,-6,1,"33.606379,-86.50249"
"84",27834,"Greenville","NC",35.626653,-77.37896,-5,1,"35.626653,-77.37896"
"85",28373,"Pinebluff","NC",35.100144,-79.47979,-5,1,"35.100144,-79.47979"
"86",11703,"North Babylon","NY",40.733398,-73.32257,-5,1,"40.733398,-73.32257"
"87",2909,"Providence","RI",41.8191,-71.44775,-5,1,"41.8191,-71.44775"
"88",4617,"Brooksville","ME",44.363587,-68.74399,-5,1,"44.363587,-68.74399"
"89",7961,"Morristown","NJ",40.77975,-74.442797,-5,1,"40.77975,-74.442797"
"90",767,"Yabucoa","PR",18.072752,-65.89703,-4,0,"18.072752,-65.89703"
"91",803,"St Thomas","VI",18.322285,-64.963715,-4,0,"18.322285,-64.963715"
"92",43681,"Toledo","OH",41.686778,-83.43943,-5,1,"41.686778,-83.43943"
"93",36744,"Greensboro","AL",32.703529,-87.60177,-6,1,"32.703529,-87.60177"
"94",37616,"Afton","TN",36.218863,-82.74704,-5,1,"36.218863,-82.74704"
"95",38602,"Arkabutla","MS",34.686272,-90.106756,-6,1,"34.686272,-90.106756"
"96",50519,"Bode","IA",42.884723,-94.27644,-6,1,"42.884723,-94.27644"
"97",40081,"Crestwood","KY",38.3386,-85.492459,-5,1,"38.3386,-85.492459"
"98",30444,"East Point","GA",33.696073,-84.450276,-5,1,"33.696073,-84.450276"
"99",90038,"Los Angeles","CA",34.089459,-118.3285,-8,1,"34.089459,-118.3285"
"100",90063,"Los Angeles","CA",34.045161,-118.1865,-8,1,"34.045161,-118.1865"
"101",92709,"Irvine","CA",33.640302,-117.769442,-8,1,"33.640302,-117.769442"
"102",93492,"Morro Bay","CA",35.372861,-120.859391,-8,1,"35.372861,-120.859391"
"103",94175,"San Francisco","CA",37.784827,-122.727802,-8,1,"37.784827,-122.727802"
"104",84530,"La Sal","UT",38.236886,-109.15445,-7,1,"38.236886,-109.15445"
"105",95592,"Vallejo","CA",38.098737,-122.271251,-8,1,"38.098737,-122.271251"
"106",38138,"Germantown","TN",35.088885,-89.80677,-6,1,"35.088885,-89.80677"
"107",40298,"Louisville","KY",38.188962,-85.676819,-5,1,"38.188962,-85.676819"
"108",56517,"Beltrami","MN",47.55171,-96.53492,-6,1,"47.55171,-96.53492"
"109",57841,"Carlisle","SD",45.632378,-98.704197,-6,1,"45.632378,-98.704197"
"110",58323,"Calvin","ND",48.849591,-98.90525,-6,1,"48.849591,-98.90525"
"111",58533,"Elgin","ND",46.408171,-101.82853,-7,1,"46.408171,-101.82853"
"112",58771,"Plaza","ND",48.073998,-101.9763,-6,1,"48.073998,-101.9763"
"113",58793,"Westhope","ND",48.871815,-101.04936,-6,1,"48.871815,-101.04936"
"114",53171,"Somers","WI",42.642298,-87.903161,-6,1,"42.642298,-87.903161"
"115",53189,"Waukesha","WI",42.967394,-88.264,-6,1,"42.967394,-88.264"
"116",56091,"Waldorf","MN",43.930363,-93.69492,-6,1,"43.930363,-93.69492"
"117",43733,"Derwent","OH",39.923616,-81.542965,-5,1,"39.923616,-81.542965"
"118",47613,"Elberfeld","IN",38.170645,-87.42886,-6,1,"38.170645,-87.42886"
"119",51049,"Quimby","IA",42.626822,-95.61438,-6,1,"42.626822,-95.61438"
"120",51651,"Shambaugh","IA",40.65747,-95.024969,-6,1,"40.65747,-95.024969"
"121",53014,"Chilton","WI",44.033215,-88.17626,-6,1,"44.033215,-88.17626"
"122",43334,"Marengo","OH",40.399648,-82.80783,-5,1,"40.399648,-82.80783"
"123",62206,"East Saint Louis","IL",38.564451,-90.1628,-6,1,"38.564451,-90.1628"
"124",64155,"Kansas City","MO",39.276828,-94.57344,-6,1,"39.276828,-94.57344"
"125",48215,"Detroit","MI",42.378287,-82.95243,-5,1,"42.378287,-82.95243"
"126",30531,"Cornelia","GA",34.514215,-83.54118,-5,1,"34.514215,-83.54118"
"127",20521,"Washington","DC",38.893311,-77.014647,-5,1,"38.893311,-77.014647"
"128",20557,"Washington","DC",38.887405,-77.004663,-5,1,"38.887405,-77.004663"
"129",23176,"Wake","VA",37.571789,-76.41631,-5,1,"37.571789,-76.41631"
"130",16830,"Clearfield","PA",41.026239,-78.43838,-5,1,"41.026239,-78.43838"
"131",16876,"Wallaceton","PA",40.960106,-78.28886,-5,1,"40.960106,-78.28886"
"132",11707,"West Babylon","NY",40.922326,-72.637078,-5,1,"40.922326,-72.637078"
"133",12442,"Hunter","NY",42.222061,-74.23418,-5,1,"42.222061,-74.23418"
"134",13334,"Eaton","NY",42.83917,-75.65482,-5,1,"42.83917,-75.65482"
"135",13626,"Copenhagen","NY",43.859025,-75.72942,-5,1,"43.859025,-75.72942"
"136",24620,"Hurley","VA",37.409883,-82.02317,-5,1,"37.409883,-82.02317"
"137",25521,"Griffithsville","WV",38.238045,-81.98991,-5,1,"38.238045,-81.98991"
"138",34489,"Silver Springs","FL",29.215153,-82.097163,-5,1,"29.215153,-82.097163"
"139",17866,"Coal Township","PA",40.791328,-76.56393,-5,1,"40.791328,-76.56393"
"140",17882,"Troxelville","PA",40.801614,-77.20537,-5,1,"40.801614,-77.20537"
"141",18466,"Tobyhanna","PA",41.19012,-75.36779,-5,1,"41.19012,-75.36779"
"142",19173,"Philadelphia","PA",40.001811,-75.11787,-5,1,"40.001811,-75.11787"
"143",28039,"East Spencer","NC",35.677889,-80.44593,-5,1,"35.677889,-80.44593"
"144",28206,"Charlotte","NC",35.248292,-80.82748,-5,1,"35.248292,-80.82748"
"145",28282,"Charlotte","NC",35.224242,-80.844743,-5,1,"35.224242,-80.844743"
"146",96778,"Pahoa","HI",19.494625,-154.9266,-10,0,"19.494625,-154.9266"
"147",97298,"Portland","OR",45.548616,-123.114725,-8,1,"45.548616,-123.114725"
"148",97538,"Selma","OR",42.259678,-123.54778,-8,1,"42.259678,-123.54778"
"149",98520,"Aberdeen","WA",46.972965,-123.81923,-8,1,"46.972965,-123.81923"
"150",98579,"Rochester","WA",46.814438,-123.08647,-8,1,"46.814438,-123.08647"
"151",93701,"Fresno","CA",36.749444,-119.78872,-8,1,"36.749444,-119.78872"
"152",94295,"Sacramento","CA",38.377411,-121.444429,-8,1,"38.377411,-121.444429"
"153",16601,"Altoona","PA",40.526319,-78.40082,-5,1,"40.526319,-78.40082"
"154",17301,"Abbottstown","PA",39.891548,-76.98359,-5,1,"39.891548,-76.98359"
"155",19420,"Arcola","PA",40.152871,-75.456719,-5,1,"40.152871,-75.456719"
"156",32503,"Pensacola","FL",30.447997,-87.20727,-6,1,"30.447997,-87.20727"
"157",36268,"Munford","AL",33.51179,-85.94756,-6,1,"33.51179,-85.94756"
"158",24292,"Whitetop","VA",36.59565,-81.59154,-5,1,"36.59565,-81.59154"
"159",26267,"Ellamore","WV",38.912609,-80.07907,-5,1,"38.912609,-80.07907"
"160",27341,"Seagrove","NC",35.53332,-79.71018,-5,1,"35.53332,-79.71018"
"161",8887,"Three Bridges","NJ",40.525361,-74.79632,-5,1,"40.525361,-74.79632"
"162",71284,"Tallulah","LA",32.341594,-91.216458,-6,1,"32.341594,-91.216458"
"163",71423,"Dry Prong","LA",31.563093,-92.54954,-6,1,"31.563093,-92.54954"
"164",71443,"Kurthwood","LA",31.1019,-93.361238,-6,1,"31.1019,-93.361238"
"165",48226,"Detroit","MI",42.331821,-83.04888,-5,1,"42.331821,-83.04888"
"166",48503,"Flint","MI",43.011227,-83.69291,-5,1,"43.011227,-83.69291"
"167",49756,"Lewiston","MI",44.839929,-84.30787,-5,1,"44.839929,-84.30787"
"168",50675,"Traer","IA",42.193577,-92.4828,-6,1,"42.193577,-92.4828"
"169",78650,"McDade","TX",30.283941,-97.23563,-6,1,"30.283941,-97.23563"
"170",80402,"Golden","CO",39.522014,-105.223945,-7,1,"39.522014,-105.223945"
"171",83121,"Frontier","WY",41.814385,-110.53743,-7,1,"41.814385,-110.53743"
"172",92693,"San Juan Capistrano","CA",33.555323,-117.564,-8,1,"33.555323,-117.564"
"173",93140,"Santa Barbara","CA",34.262834,-119.848555,-8,1,"34.262834,-119.848555"
"174",93255,"Onyx","CA",35.666835,-118.01701,-8,1,"35.666835,-118.01701"
"175",75010,"Carrollton","TX",33.030556,-96.89328,-6,1,"33.030556,-96.89328"
"176",76054,"Hurst","TX",32.858398,-97.17681,-6,1,"32.858398,-97.17681"
"177",68743,"Jackson","NE",42.460155,-96.60668,-6,1,"42.460155,-96.60668"
"178",85268,"Fountain Hills","AZ",33.604811,-111.72852,-7,0,"33.604811,-111.72852"
"179",45841,"Jenera","OH",40.881217,-83.73199,-5,1,"40.881217,-83.73199"
"180",65047,"Kaiser","MO",38.14008,-92.58331,-6,1,"38.14008,-92.58331"
"181",67102,"Maple City","KS",37.043519,-96.75924,-6,1,"37.043519,-96.75924"
"182",67954,"Rolla","KS",37.163412,-101.61909,-6,1,"37.163412,-101.61909"
"183",68792,"Wynot","NE",42.749481,-97.14372,-6,1,"42.749481,-97.14372"
"184",75961,"Nacogdoches","TX",31.626011,-94.60338,-6,1,"31.626011,-94.60338"
"185",76452,"Energy","TX",31.758351,-98.40613,-6,1,"31.758351,-98.40613"
"186",76855,"Lowake","TX",31.333614,-99.85837,-6,1,"31.333614,-99.85837"
"187",80235,"Denver","CO",39.648328,-105.08431,-7,1,"39.648328,-105.08431"
"188",80620,"Evans","CO",40.378019,-104.70357,-7,1,"40.378019,-104.70357"
"189",81001,"Pueblo","CO",38.282872,-104.57029,-7,1,"38.282872,-104.57029"
"190",83401,"Idaho Falls","ID",43.528891,-111.98136,-7,1,"43.528891,-111.98136"
"191",85292,"Winkelman","AZ",32.945838,-110.72198,-7,0,"32.945838,-110.72198"
"192",57481,"Westport","SD",45.663385,-98.62274,-6,1,"45.663385,-98.62274"
"193",58723,"Butte","ND",47.785232,-100.69257,-6,1,"47.785232,-100.69257"
"194",78349,"Concepcion","TX",27.316167,-98.29797,-6,1,"27.316167,-98.29797"
"195",79381,"Wilson","TX",33.327782,-101.76906,-6,1,"33.327782,-101.76906"
"196",63626,"Blackwell","MO",38.053566,-90.64229,-6,1,"38.053566,-90.64229"
"197",23290,"Richmond","VA",37.524246,-77.493157,-5,1,"37.524246,-77.493157"
"198",23486,"Willis Wharf","VA",37.518917,-75.810482,-5,1,"37.518917,-75.810482"
"199",24069,"Cascade","VA",36.586545,-79.64194,-5,1,"36.586545,-79.64194"
"200",15773,"Saint Benedict","PA",40.628368,-78.73335,-5,1,"40.628368,-78.73335"
"201",16665,"Newry","PA",40.393223,-78.43508,-5,1,"40.393223,-78.43508"
"202",16927,"Harrison Valley","PA",41.958059,-77.67187,-5,1,"41.958059,-77.67187"
"203",30746,"Sugar Valley","GA",34.574804,-85.02482,-5,1,"34.574804,-85.02482"
"204",32830,"Orlando","FL",28.385549,-81.505894,-5,1,"28.385549,-81.505894"
"205",33756,"Clearwater","FL",27.944631,-82.78702,-5,1,"27.944631,-82.78702"
"206",20868,"Spencerville","MD",39.127028,-76.96372,-5,1,"39.127028,-76.96372"
"207",21849,"Parsonsburg","MD",38.363057,-75.45574,-5,1,"38.363057,-75.45574"
"208",22218,"Arlington","VA",38.880811,-77.11295,-5,1,"38.880811,-77.11295"
"209",17570,"Rheems","PA",40.129494,-76.56991,-5,1,"40.129494,-76.56991"
"210",17942,"Landingville","PA",40.722587,-76.229623,-5,1,"40.722587,-76.229623"
"211",18456,"Prompton","PA",41.606185,-75.33971,-5,1,"41.606185,-75.33971"
"212",18834,"New Milford","PA",41.853082,-75.72077,-5,1,"41.853082,-75.72077"
"213",18921,"Ferndale","PA",40.328645,-75.10278,-5,1,"40.328645,-75.10278"
"214",19134,"Philadelphia","PA",39.991712,-75.11116,-5,1,"39.991712,-75.11116"
"215",29164,"Wagener","SC",33.659078,-81.40845,-5,1,"33.659078,-81.40845"
"216",54020,"Osceola","WI",45.299735,-92.64222,-6,1,"45.299735,-92.64222"
"217",55125,"Saint Paul","MN",44.921982,-92.94234,-6,1,"44.921982,-92.94234"
"218",56039,"Granada","MN",43.680519,-94.33773,-6,1,"43.680519,-94.33773"
"219",39072,"Pocahontas","MS",32.311287,-90.397157,-6,1,"32.311287,-90.397157"
"220",39154,"Raymond","MS",32.230592,-90.45709,-6,1,"32.230592,-90.45709"
"221",8817,"Edison","NJ",40.516104,-74.39754,-5,1,"40.516104,-74.39754"
"222",10965,"Pearl River","NY",41.063329,-74.01734,-5,1,"41.063329,-74.01734"
"223",12151,"Round Lake","NY",42.932326,-73.79363,-5,1,"42.932326,-73.79363"
"224",12195,"West Lebanon","NY",42.479384,-73.474809,-5,1,"42.479384,-73.474809"
"225",18216,"Beaver Meadows","PA",40.931187,-75.91493,-5,1,"40.931187,-75.91493"
"226",2169,"Quincy","MA",42.250739,-70.99593,-5,1,"42.250739,-70.99593"
"227",2375,"South Easton","MA",42.029749,-71.10191,-5,1,"42.029749,-71.10191"
"228",2639,"Dennis Port","MA",41.661115,-70.13348,-5,1,"41.661115,-70.13348"
"229",77590,"Texas City","TX",29.395283,-94.91759,-6,1,"29.395283,-94.91759"
"230",78013,"Comfort","TX",29.972473,-98.91084,-6,1,"29.972473,-98.91084"
"231",68832,"Doniphan","NE",40.763643,-98.38794,-6,1,"40.763643,-98.38794"
"232",42046,"Hamlin","KY",36.6033,-88.092285,-6,1,"36.6033,-88.092285"
"233",43652,"Toledo","OH",41.686778,-83.43943,-5,1,"41.686778,-83.43943"
"234",62611,"Arenzville","IL",39.883346,-90.39332,-6,1,"39.883346,-90.39332"
"235",70005,"Metairie","LA",29.999453,-90.13398,-6,1,"29.999453,-90.13398"
"236",71048,"Lisbon","LA",32.830135,-92.85568,-6,1,"32.830135,-92.85568"
"237",26865,"Yellow Spring","WV",39.199856,-78.49655,-5,1,"39.199856,-78.49655"
"238",28007,"Ansonville","NC",35.104652,-80.10965,-5,1,"35.104652,-80.10965"
"239",54964,"Pickett","WI",43.923141,-88.72654,-6,1,"43.923141,-88.72654"
"240",56011,"Belle Plaine","MN",44.616113,-93.76906,-6,1,"44.616113,-93.76906"
"241",19318,"Chatham","PA",39.852406,-75.811789,-5,1,"39.852406,-75.811789"
"242",21241,"Baltimore","MD",39.284707,-76.620489,-5,1,"39.284707,-76.620489"
"243",50167,"Minburn","IA",41.750745,-94.04659,-6,1,"41.750745,-94.04659"
"244",80202,"Denver","CO",39.751586,-104.99699,-7,1,"39.751586,-104.99699"
"245",84305,"Clarkston","UT",41.938629,-112.0433,-7,1,"41.938629,-112.0433"
"246",85382,"Peoria","AZ",33.689869,-112.24838,-7,0,"33.689869,-112.24838"
"247",93465,"Templeton","CA",35.54464,-120.72428,-8,1,"35.54464,-120.72428"
"248",94160,"San Francisco","CA",37.784827,-122.727802,-8,1,"37.784827,-122.727802"
"249",94164,"San Francisco","CA",37.784827,-122.727802,-8,1,"37.784827,-122.727802"
"250",95383,"Twain Harte","CA",38.055888,-120.23002,-8,1,"38.055888,-120.23002"
"251",95665,"Pine Grove","CA",38.40097,-120.64952,-8,1,"38.40097,-120.64952"
"252",79917,"El Paso","TX",31.694842,-106.299987,-7,1,"31.694842,-106.299987"
"253",90301,"Inglewood","CA",33.955913,-118.35868,-8,1,"33.955913,-118.35868"
"254",60974,"Woodland","IL",40.710295,-87.73137,-6,1,"40.710295,-87.73137"
"255",62001,"Alhambra","IL",38.884434,-89.74886,-6,1,"38.884434,-89.74886"
"256",92543,"Hemet","CA",33.73542,-116.97401,-8,1,"33.73542,-116.97401"
"257",92837,"Fullerton","CA",33.640302,-117.769442,-8,1,"33.640302,-117.769442"
"258",14617,"Rochester","NY",43.223213,-77.59721,-5,1,"43.223213,-77.59721"
"259",15238,"Pittsburgh","PA",40.518701,-79.86744,-5,1,"40.518701,-79.86744"
"260",21767,"Maugansville","MD",39.697894,-77.74514,-5,1,"39.697894,-77.74514"
"261",2886,"Warwick","RI",41.705478,-71.45119,-5,1,"41.705478,-71.45119"
"262",3648,"Enfield","NH",43.630276,-72.135352,-5,1,"43.630276,-72.135352"
"263",4981,"Stockton Springs","ME",44.499082,-68.85667,-5,1,"44.499082,-68.85667"
"264",5061,"Randolph Center","VT",43.928369,-72.5731,-5,1,"43.928369,-72.5731"
"265",5648,"Calais","VT",44.375726,-72.49509,-5,1,"44.375726,-72.49509"
"266",19488,"Norristown","PA",39.983153,-75.748055,-5,1,"39.983153,-75.748055"
"267",19524,"Robeson","PA",40.248684,-75.858731,-5,1,"40.248684,-75.858731"
"268",982,"Carolina","PR",18.409345,-65.99313,-4,0,"18.409345,-65.99313"
"269",37407,"Chattanooga","TN",35.000825,-85.28673,-5,1,"35.000825,-85.28673"
"270",38704,"Greenville","MS",33.253401,-90.918503,-6,1,"33.253401,-90.918503"
"271",38912,"Avalon","MS",33.65497,-90.053958,-6,1,"33.65497,-90.053958"
"272",30415,"Brooklet","GA",32.3456,-81.62339,-5,1,"32.3456,-81.62339"
"273",31525,"Brunswick","GA",31.260995,-81.49832,-5,1,"31.260995,-81.49832"
"274",32798,"Zellwood","FL",28.716923,-81.5754,-5,1,"28.716923,-81.5754"
"275",43719,"Bethesda","OH",40.009383,-81.0763,-5,1,"40.009383,-81.0763"
"276",43748,"Junction City","OH",39.710863,-82.30228,-5,1,"39.710863,-82.30228"
"277",47649,"Francisco","IN",38.343295,-87.44275,-6,1,"38.343295,-87.44275"
"278",35576,"Millport","AL",33.581135,-88.10835,-6,1,"33.581135,-88.10835"
"279",36535,"Foley","AL",30.396876,-87.69616,-6,1,"30.396876,-87.69616"
"280",37367,"Pikeville","TN",35.635097,-85.17161,-6,1,"35.635097,-85.17161"
"281",27107,"Winston Salem","NC",36.046215,-80.18998,-5,1,"36.046215,-80.18998"
"282",24324,"Draper","VA",36.973028,-80.79309,-5,1,"36.973028,-80.79309"
"283",41132,"Denton","KY",38.251159,-82.83496,-5,1,"38.251159,-82.83496"
"284",43506,"Bryan","OH",41.471569,-84.55459,-5,1,"41.471569,-84.55459"
"285",28584,"Swansboro","NC",34.69771,-77.10614,-5,1,"34.69771,-77.10614"
"286",29325,"Clinton","SC",34.470115,-81.86761,-5,1,"34.470115,-81.86761"
"287",95965,"Oroville","CA",39.558586,-121.58923,-8,1,"39.558586,-121.58923"
"288",97844,"Irrigon","OR",45.886463,-119.51737,-8,1,"45.886463,-119.51737"
"289",83429,"Island Park","ID",44.490674,-111.36631,-7,1,"44.490674,-111.36631"
"290",78148,"Universal City","TX",29.550223,-98.29936,-6,1,"29.550223,-98.29936"
"291",78588,"San Isidro","TX",26.720155,-98.46845,-6,1,"26.720155,-98.46845"
"292",65777,"Moody","MO",36.524268,-91.98863,-6,1,"36.524268,-91.98863"
"293",67050,"Garden Plain","KS",37.663743,-97.68539,-6,1,"37.663743,-97.68539"
"294",67645,"Lenora","KS",39.609655,-99.91904,-6,1,"39.609655,-99.91904"
"295",56522,"Campbell","MN",46.130213,-96.40019,-6,1,"46.130213,-96.40019"
"296",58405,"Jamestown","ND",46.913344,-98.699553,-6,1,"46.913344,-98.699553"
"297",60025,"Glenview","IL",42.07672,-87.81922,-6,1,"42.07672,-87.81922"
"298",50278,"Zearing","IA",42.158866,-93.29673,-6,1,"42.158866,-93.29673"
"299",50569,"Otho","IA",42.417893,-94.1494,-6,1,"42.417893,-94.1494"
"300",52156,"Luana","IA",43.051922,-91.45842,-6,1,"43.051922,-91.45842"
"301",51530,"Earling","IA",41.77364,-95.42761,-6,1,"41.77364,-95.42761"
"302",51656,"Yorktown","IA",40.737446,-95.156217,-6,1,"40.737446,-95.156217"
"303",53009,"Byron","WI",43.76983,-88.494357,-6,1,"43.76983,-88.494357"
"304",55381,"Silver Lake","MN",44.904987,-94.18802,-6,1,"44.904987,-94.18802"
"305",30263,"Newnan","GA",33.38779,-84.82536,-5,1,"33.38779,-84.82536"
"306",30384,"Atlanta","GA",33.844371,-84.47405,-5,1,"33.844371,-84.47405"
"307",30728,"La Fayette","GA",34.696201,-85.25824,-5,1,"34.696201,-85.25824"
"308",31714,"Ashburn","GA",31.709742,-83.66519,-5,1,"31.709742,-83.66519"
"309",33315,"Fort Lauderdale","FL",26.094385,-80.15422,-5,1,"26.094385,-80.15422"
"310",33994,"Fort Myers","FL",26.552895,-81.94861,-5,1,"26.552895,-81.94861"
"311",34209,"Bradenton","FL",27.488866,-82.62737,-5,1,"27.488866,-82.62737"
"312",47261,"Millhousen","IN",39.292004,-85.491788,-5,0,"39.292004,-85.491788"
"313",37050,"Cumberland City","TN",36.373626,-87.63158,-6,1,"36.373626,-87.63158"
"314",15665,"Manor","PA",40.333339,-79.66646,-5,1,"40.333339,-79.66646"
"315",17265,"Upperstrasburg","PA",40.035958,-77.79113,-5,1,"40.035958,-77.79113"
"316",17585,"Witmer","PA",40.048398,-76.211427,-5,1,"40.048398,-76.211427"
"317",19511,"Bowers","PA",40.48773,-75.7393,-5,1,"40.48773,-75.7393"
"318",8406,"Ventnor City","NJ",39.342299,-74.48192,-5,1,"39.342299,-74.48192"
"319",29520,"Cheraw","SC",34.68862,-79.92315,-5,1,"34.68862,-79.92315"
"320",29615,"Greenville","SC",34.866801,-82.31739,-5,1,"34.866801,-82.31739"
"321",11716,"Bohemia","NY",40.770042,-73.11376,-5,1,"40.770042,-73.11376"
"322",12719,"Barryville","NY",41.480326,-74.92694,-5,1,"41.480326,-74.92694"
"323",23435,"Suffolk","VA",36.84882,-76.46521,-5,1,"36.84882,-76.46521"
"324",24550,"Evington","VA",37.237928,-79.28268,-5,1,"37.237928,-79.28268"
"325",25918,"Shady Spring","WV",37.712469,-81.00561,-5,1,"37.712469,-81.00561"
"326",27028,"Mocksville","NC",35.920477,-80.57143,-5,1,"35.920477,-80.57143"
"327",27049,"Toast","NC",36.551332,-80.655786,-5,1,"36.551332,-80.655786"
"328",95655,"Mather","CA",38.558073,-121.28737,-8,1,"38.558073,-121.28737"
"329",91189,"Pasadena","CA",33.786594,-118.298662,-8,1,"33.786594,-118.298662"
"330",93099,"Simi Valley","CA",34.032383,-119.1343,-8,1,"34.032383,-119.1343"
"331",98604,"Battle Ground","WA",45.791345,-122.51789,-8,1,"45.791345,-122.51789"
"332",87413,"Bloomfield","NM",36.579374,-107.87907,-7,1,"36.579374,-107.87907"
"333",2382,"Whitman","MA",42.08235,-70.93734,-5,1,"42.08235,-70.93734"
"334",2719,"Fairhaven","MA",41.634152,-70.8814,-5,1,"41.634152,-70.8814"
"335",62676,"Hillyard","IL",39.128248,-89.923215,-6,1,"39.128248,-89.923215"
"336",79370,"Spur","TX",33.478848,-100.89669,-6,1,"33.478848,-100.89669"
"337",71226,"Chatham","LA",32.277816,-92.45283,-6,1,"32.277816,-92.45283"
"338",72542,"Hardy","AR",36.303556,-91.48573,-6,1,"36.303556,-91.48573"
"339",72686,"Witts Springs","AR",35.747154,-92.90985,-6,1,"35.747154,-92.90985"
"340",72927,"Booneville","AR",35.105966,-93.97531,-6,1,"35.105966,-93.97531"
"341",83355,"Wendell","ID",42.76079,-114.71025,-7,1,"42.76079,-114.71025"
"342",83641,"Melba","ID",43.370358,-116.57555,-7,1,"43.370358,-116.57555"
"343",84307,"Corinne","UT",41.535714,-112.30373,-7,1,"41.535714,-112.30373"
"344",60139,"Glendale Heights","IL",41.920228,-88.07891,-6,1,"41.920228,-88.07891"
"345",60438,"Lansing","IL",41.565685,-87.54819,-6,1,"41.565685,-87.54819"
"346",68636,"Elgin","NE",42.009216,-98.13311,-6,1,"42.009216,-98.13311"
"347",66532,"Robinson","KS",39.8202,-95.36776,-6,1,"39.8202,-95.36776"
"348",55723,"Cook","MN",47.854987,-92.77077,-6,1,"47.854987,-92.77077"
"349",39478,"Sandy Hook","MS",31.054236,-89.85553,-6,1,"31.054236,-89.85553"
"350",49041,"Comstock","MI",42.245412,-85.529858,-5,1,"42.245412,-85.529858"
"351",61107,"Rockford","IL",42.280019,-89.03347,-6,1,"42.280019,-89.03347"
"352",58072,"Valley City","ND",46.934311,-98.02374,-6,1,"46.934311,-98.02374"
"353",59333,"Hathaway","MT",46.271872,-106.21374,-7,1,"46.271872,-106.21374"
"354",35283,"Birmingham","AL",33.544622,-86.929208,-6,1,"33.544622,-86.929208"
"355",42163,"Rocky Hill","KY",37.09425,-86.143188,-6,1,"37.09425,-86.143188"
"356",49157,"Richland","MI",44.21551,-85.298079,-5,1,"44.21551,-85.298079"
"357",43735,"East Fultonham","OH",39.851515,-82.12173,-5,1,"39.851515,-82.12173"
"358",44403,"Brookfield","OH",41.239987,-80.58346,-5,1,"41.239987,-80.58346"
"359",50581,"Rolfe","IA",42.842111,-94.53114,-6,1,"42.842111,-94.53114"
"360",33850,"Lake Alfred","FL",28.092512,-81.72758,-5,1,"28.092512,-81.72758"
"361",35259,"Birmingham","AL",33.544622,-86.929208,-6,1,"33.544622,-86.929208"
"362",35593,"Vina","AL",34.369264,-88.06745,-6,1,"34.369264,-88.06745"
"363",40118,"Fairdale","KY",38.106135,-85.75362,-5,1,"38.106135,-85.75362"
"364",40371,"Salt Lick","KY",38.087867,-83.61146,-5,1,"38.087867,-83.61146"
"365",13479,"Washington Mills","NY",43.053769,-75.271559,-5,1,"43.053769,-75.271559"
"366",15564,"Wellersburg","PA",39.729896,-78.844105,-5,1,"39.729896,-78.844105"
"367",15944,"New Florence","PA",40.371165,-79.0772,-5,1,"40.371165,-79.0772"
"368",17052,"Mapleton Depot","PA",40.338058,-77.9779,-5,1,"40.338058,-77.9779"
"369",30747,"Summerville","GA",34.489848,-85.32928,-5,1,"34.489848,-85.32928"
"370",31754,"Georgetown","GA",31.860476,-85.07534,-5,1,"31.860476,-85.07534"
"371",32746,"Lake Mary","FL",28.758133,-81.33992,-5,1,"28.758133,-81.33992"
"372",33801,"Lakeland","FL",28.041198,-81.92392,-5,1,"28.041198,-81.92392"
"373",23178,"Ware Neck","VA",37.400287,-76.46089,-5,1,"37.400287,-76.46089"
"374",10072,"New York","NY",40.780751,-73.977182,-5,1,"40.780751,-73.977182"
"375",10166,"New York","NY",40.754591,-73.976238,-5,1,"40.754591,-73.976238"
"376",10998,"Westtown","NY",41.334034,-74.54593,-5,1,"41.334034,-74.54593"
"377",21623,"Church Hill","MD",39.123235,-75.96707,-5,1,"39.123235,-75.96707"
"378",29336,"Fairforest","SC",34.888237,-81.96902,-5,1,"34.888237,-81.96902"
"379",29348,"Gramling","SC",34.888237,-81.96902,-5,1,"34.888237,-81.96902"
"380",11560,"Locust Valley","NY",40.881957,-73.59417,-5,1,"40.881957,-73.59417"
"381",18355,"Scotrun","PA",41.074757,-75.36259,-5,1,"41.074757,-75.36259"
"382",36538,"Frankville","AL",31.646087,-88.14188,-6,1,"31.646087,-88.14188"
"383",37322,"Decatur","TN",35.503723,-84.80741,-5,1,"35.503723,-84.80741"
"384",43081,"Westerville","OH",40.109513,-82.91606,-5,1,"40.109513,-82.91606"
"385",27105,"Winston Salem","NC",36.147887,-80.23423,-5,1,"36.147887,-80.23423"
"386",44398,"Akron","OH",41.128705,-81.53999,-5,1,"41.128705,-81.53999"
"387",46731,"Craigville","IN",40.793562,-85.0974,-5,0,"40.793562,-85.0974"
"388",33659,"Palm River-Clair Mel","FL",27.894362,-82.338911,-5,1,"27.894362,-82.338911"
"389",2875,"Shannock","RI",41.447642,-71.63877,-5,1,"41.447642,-71.63877"
"390",4630,"East Machias","ME",44.753992,-67.3786,-5,1,"44.753992,-67.3786"
"391",6053,"New Britain","CT",41.686949,-72.7908,-5,1,"41.686949,-72.7908"
"392",714,"Arroyo","PR",17.987288,-66.05552,-4,0,"17.987288,-66.05552"
"393",2126,"Mattapan","MA",42.272098,-71.09426,-5,1,"42.272098,-71.09426"
"394",14150,"Tonawanda","NY",43.001907,-78.8631,-5,1,"43.001907,-78.8631"
"395",30339,"Atlanta","GA",33.87507,-84.46615,-5,1,"33.87507,-84.46615"
"396",32361,"Wacissa","FL",30.357761,-83.98882,-5,1,"30.357761,-83.98882"
"397",32634,"Fairfield","FL",29.35089,-82.27648,-5,1,"29.35089,-82.27648"
"398",33523,"Dade City","FL",28.433019,-82.19736,-5,1,"28.433019,-82.19736"
"399",33706,"Saint Petersburg","FL",27.741505,-82.75179,-5,1,"27.741505,-82.75179"
"400",24605,"Bluefield","VA",37.222548,-81.3367,-5,1,"37.222548,-81.3367"
"401",25444,"Slanesville","WV",39.412828,-78.52587,-5,1,"39.412828,-78.52587"
"402",26280,"Mill Creek","WV",38.736144,-80,-5,1,"38.736144,-80.0"
"403",18465,"Thompson","PA",41.839349,-75.50841,-5,1,"41.839349,-75.50841"
"404",12197,"Worcester","NY",42.610314,-74.72401,-5,1,"42.610314,-74.72401"
"405",13147,"Scipio Center","NY",42.774714,-76.57045,-5,1,"42.774714,-76.57045"
"406",28519,"Bridgeton","NC",35.120742,-77.01969,-5,1,"35.120742,-77.01969"
"407",26561,"Big Run","WV",39.575518,-80.666712,-5,1,"39.575518,-80.666712"
"408",82937,"Lyman","WY",41.399751,-110.36624,-7,1,"41.399751,-110.36624"
"409",64070,"Lone Jack","MO",38.895469,-94.15315,-6,1,"38.895469,-94.15315"
"410",64471,"New Hampton","MO",40.264749,-94.19587,-6,1,"40.264749,-94.19587"
"411",75075,"Plano","TX",33.024721,-96.74038,-6,1,"33.024721,-96.74038"
"412",68118,"Omaha","NE",41.263194,-96.17108,-6,1,"41.263194,-96.17108"
"413",79080,"Skellytown","TX",35.655035,-101.22477,-6,1,"35.655035,-101.22477"
"414",70059,"Harvey","LA",29.677893,-90.0901,-6,1,"29.677893,-90.0901"
"415",90845,"Long Beach","CA",33.786594,-118.298662,-8,1,"33.786594,-118.298662"
"416",92114,"San Diego","CA",32.706954,-117.0542,-8,1,"32.706954,-117.0542"
"417",98144,"Seattle","WA",47.58577,-122.30081,-8,1,"47.58577,-122.30081"
"418",98833,"Mazama","WA",48.634796,-120.47681,-8,1,"48.634796,-120.47681"
"419",95692,"Wheatland","CA",39.030716,-121.43497,-8,1,"39.030716,-121.43497"
"420",95826,"Sacramento","CA",38.550098,-121.37492,-8,1,"38.550098,-121.37492"
"421",93458,"Santa Maria","CA",34.956344,-120.45243,-8,1,"34.956344,-120.45243"
"422",61866,"Rantoul","IL",40.307065,-88.15575,-6,1,"40.307065,-88.15575"
"423",77046,"Houston","TX",29.733181,-95.43131,-6,1,"29.733181,-95.43131"
"424",77581,"Pearland","TX",29.56218,-95.26982,-6,1,"29.56218,-95.26982"
"425",67149,"Viola","KS",37.538257,-97.62031,-6,1,"37.538257,-97.62031"
"426",57231,"De Smet","SD",44.374289,-97.57442,-6,1,"44.374289,-97.57442"
"427",74061,"Ramona","OK",36.533868,-95.90865,-6,1,"36.533868,-95.90865"
"428",82412,"Byron","WY",44.794477,-108.53415,-7,1,"44.794477,-108.53415"
"429",75712,"Tyler","TX",32.411237,-95.289903,-6,1,"32.411237,-95.289903"
"430",75756,"Brownsboro","TX",32.306045,-95.60507,-6,1,"32.306045,-95.60507"
"431",85225,"Chandler","AZ",33.316349,-111.83064,-7,0,"33.316349,-111.83064"
"432",86508,"Lupton","AZ",35.325261,-109.07847,-7,0,"35.325261,-109.07847"
"433",87579,"Vadito","NM",36.160484,-105.56045,-7,1,"36.160484,-105.56045"
"434",93215,"Delano","CA",35.774967,-119.23371,-8,1,"35.774967,-119.23371"
"435",94973,"Woodacre","CA",38.007639,-122.63914,-8,1,"38.007639,-122.63914"
"436",98587,"Taholah","WA",47.32251,-124.25814,-8,1,"47.32251,-124.25814"
"437",98639,"North Bonneville","WA",45.650041,-121.97167,-8,1,"45.650041,-121.97167"
"438",4327,"Richmond","ME",44.09156,-69.804077,-5,1,"44.09156,-69.804077"
"439",4747,"Island Falls","ME",46.004523,-68.27004,-5,1,"46.004523,-68.27004"
"440",5452,"Essex Junction","VT",44.501991,-73.09376,-5,1,"44.501991,-73.09376"
"441",6410,"Cheshire","CT",41.507049,-72.90489,-5,1,"41.507049,-72.90489"
"442",2769,"Rehoboth","MA",41.835067,-71.26115,-5,1,"41.835067,-71.26115"
"443",54875,"Springbrook","WI",45.947509,-91.67526,-6,1,"45.947509,-91.67526"
"444",55018,"Dennison","MN",44.422975,-93.00089,-6,1,"44.422975,-93.00089"
"445",37421,"Chattanooga","TN",35.028574,-85.15939,-5,1,"35.028574,-85.15939"
"446",46904,"Kokomo","IN",40.469625,-86.11894,-5,0,"40.469625,-86.11894"
"447",5155,"South Londonderry","VT",43.158484,-72.84497,-5,1,"43.158484,-72.84497"
"448",6074,"South Windsor","CT",41.836665,-72.56076,-5,1,"41.836665,-72.56076"
"449",15242,"Pittsburgh","PA",40.434436,-80.024817,-5,1,"40.434436,-80.024817"
"450",17010,"Campbelltown","PA",40.280149,-76.5806,-5,1,"40.280149,-76.5806"
"451",23101,"Macon","VA",37.553314,-77.892964,-5,1,"37.553314,-77.892964"
"452",60697,"Chicago","IL",41.811929,-87.68732,-6,1,"41.811929,-87.68732"
"453",23297,"Richmond","VA",37.389721,-77.561266,-5,1,"37.389721,-77.561266"
"454",62464,"Stoy","IL",38.98981,-87.839627,-6,1,"38.98981,-87.839627"
"455",58370,"Saint Michael","ND",47.994379,-98.86913,-6,1,"47.994379,-98.86913"
"456",72536,"Franklin","AR",36.155897,-91.75644,-6,1,"36.155897,-91.75644"
"457",73644,"Elk City","OK",35.405935,-99.41658,-6,1,"35.405935,-99.41658"
"458",74330,"Adair","OK",36.434328,-95.25512,-6,1,"36.434328,-95.25512"
"459",30354,"Atlanta","GA",33.658834,-84.39682,-5,1,"33.658834,-84.39682"
"460",80454,"Indian Hills","CO",39.631254,-105.26071,-7,1,"39.631254,-105.26071"
"461",37774,"Loudon","TN",35.725969,-84.33069,-5,1,"35.725969,-84.33069"
"462",39731,"Brooksville","MS",33.230508,-88.57968,-6,1,"33.230508,-88.57968"
"463",72314,"Birdeye","AR",35.357184,-90.677331,-6,1,"35.357184,-90.677331"
"464",44022,"Chagrin Falls","OH",41.43932,-81.39232,-5,1,"41.43932,-81.39232"
"465",72774,"West Fork","AR",35.896307,-94.19661,-6,1,"35.896307,-94.19661"
"466",53803,"Benton","WI",42.563769,-90.36783,-6,1,"42.563769,-90.36783"
"467",54565,"Upson","WI",46.309371,-90.4354,-6,1,"46.309371,-90.4354"
"468",54757,"New Auburn","WI",45.235611,-91.52127,-6,1,"45.235611,-91.52127"
"469",54936,"Fond Du Lac","WI",43.740559,-88.522984,-6,1,"43.740559,-88.522984"
"470",55054,"New Market","MN",44.571056,-93.354267,-6,1,"44.571056,-93.354267"
"471",62248,"Hecker","IL",38.299507,-89.961825,-6,1,"38.299507,-89.961825"
"472",29260,"Columbia","SC",34.005992,-80.970766,-5,1,"34.005992,-80.970766"
"473",42104,"Bowling Green","KY",36.930527,-86.44751,-6,1,"36.930527,-86.44751"
"474",43115,"Clarksburg","OH",39.501913,-83.17383,-5,1,"39.501913,-83.17383"
"475",44333,"Akron","OH",41.144661,-81.61948,-5,1,"41.144661,-81.61948"
"476",34101,"Naples","FL",25.855534,-81.38719,-5,1,"25.855534,-81.38719"
"477",39067,"Ethel","MS",33.127907,-89.46704,-6,1,"33.127907,-89.46704"
"478",23025,"Cardinal","VA",37.422209,-76.37304,-5,1,"37.422209,-76.37304"
"479",23228,"Richmond","VA",37.621745,-77.48896,-5,1,"37.621745,-77.48896"
"480",23541,"Norfolk","VA",36.931166,-76.23972,-5,1,"36.931166,-76.23972"
"481",28386,"Shannon","NC",34.851865,-79.12266,-5,1,"34.851865,-79.12266"
"482",32971,"Winter Beach","FL",27.709049,-80.572557,-5,1,"27.709049,-80.572557"
"483",73834,"Buffalo","OK",36.851116,-99.5897,-6,1,"36.851116,-99.5897"
"484",75294,"Dallas","TX",32.767268,-96.777626,-6,1,"32.767268,-96.777626"
"485",81422,"Naturita","CO",38.296229,-108.68079,-7,1,"38.296229,-108.68079"
"486",82242,"Van Tassell","WY",42.706475,-104.12045,-7,1,"42.706475,-104.12045"
"487",84133,"Salt Lake City","UT",40.769046,-111.889319,-7,1,"40.769046,-111.889319"
"488",85262,"Scottsdale","AZ",33.798581,-111.8708,-7,0,"33.798581,-111.8708"
"489",93308,"Bakersfield","CA",35.487491,-119.00896,-8,1,"35.487491,-119.00896"
"490",93611,"Clovis","CA",36.840057,-119.66107,-8,1,"36.840057,-119.66107"
"491",94131,"San Francisco","CA",37.741797,-122.4378,-8,1,"37.741797,-122.4378"
"492",94249,"Sacramento","CA",38.377411,-121.444429,-8,1,"38.377411,-121.444429"
"493",96062,"Millville","CA",40.577799,-122.10148,-8,1,"40.577799,-122.10148"
"494",97378,"Sheridan","OR",45.089532,-123.40787,-8,1,"45.089532,-123.40787"
"495",15555,"Quecreek","PA",40.091429,-79.087198,-5,1,"40.091429,-79.087198"
"496",16662,"Martinsburg","PA",40.306709,-78.31987,-5,1,"40.306709,-78.31987"
"497",16940,"Nelson","PA",41.978436,-77.24667,-5,1,"41.978436,-77.24667"
"498",17212,"Big Cove Tannery","PA",39.81231,-78.06337,-5,1,"39.81231,-78.06337"
"499",8835,"Manville","NJ",40.538903,-74.59222,-5,1,"40.538903,-74.59222"
"500",12771,"Port Jervis","NY",41.374734,-74.66315,-5,1,"41.374734,-74.66315"
"501",12810,"Athol","NY",43.484741,-73.89151,-5,1,"43.484741,-73.89151"
"502",13350,"Herkimer","NY",43.038149,-74.9846,-5,1,"43.038149,-74.9846"
"503",24513,"Lynchburg","VA",37.245798,-79.133546,-5,1,"37.245798,-79.133546"
"504",22720,"Goldvein","VA",38.474222,-77.64361,-5,1,"38.474222,-77.64361"
"505",13655,"Hogansburg","NY",44.98184,-74.67374,-5,1,"44.98184,-74.67374"
"506",3266,"Rumney","NH",43.806365,-71.87952,-5,1,"43.806365,-71.87952"
"507",76503,"Temple","TX",31.053986,-97.320306,-6,1,"31.053986,-97.320306"
"508",77015,"Houston","TX",29.778526,-95.18118,-6,1,"29.778526,-95.18118"
"509",77550,"Galveston","TX",29.298448,-94.79316,-6,1,"29.298448,-94.79316"
"510",78041,"Laredo","TX",27.542244,-99.49233,-6,1,"27.542244,-99.49233"
"511",80720,"Akron","CO",40.124199,-103.18362,-7,1,"40.124199,-103.18362"
"512",83215,"Atomic City","ID",43.442618,-112.81316,-7,1,"43.442618,-112.81316"
"513",83554,"White Bird","ID",45.717554,-116.26936,-8,1,"45.717554,-116.26936"
"514",96720,"Hilo","HI",19.713562,-155.09842,-10,0,"19.713562,-155.09842"
"515",97368,"Otis","OR",45.009935,-123.91182,-8,1,"45.009935,-123.91182"
"516",97877,"Sumpter","OR",44.744446,-118.2229,-8,1,"44.744446,-118.2229"
"517",98622,"Heisson","WA",45.801586,-122.520347,-8,1,"45.801586,-122.520347"
"518",89009,"Henderson","NV",35.927901,-114.972061,-8,1,"35.927901,-114.972061"
"519",89047,"Silverpeak","NV",37.751386,-117.64225,-8,1,"37.751386,-117.64225"
"520",89412,"Gerlach","NV",40.652505,-119.356505,-8,1,"40.652505,-119.356505"
"521",99124,"Elmer City","WA",47.998468,-118.95248,-8,1,"47.998468,-118.95248"
"522",99554,"Alakanuk","AK",62.683391,-164.65455,-9,1,"62.683391,-164.65455"
"523",28772,"Rosman","NC",35.139812,-82.84253,-5,1,"35.139812,-82.84253"
"524",29708,"Fort Mill","SC",35.040969,-80.99427,-5,1,"35.040969,-80.99427"
"525",31069,"Perry","GA",32.460791,-83.73541,-5,1,"32.460791,-83.73541"
"526",36801,"Opelika","AL",32.660497,-85.39917,-6,1,"32.660497,-85.39917"
"527",38124,"Memphis","TN",35.201738,-89.971538,-6,1,"35.201738,-89.971538"
"528",47163,"Otisco","IN",38.544512,-85.66831,-5,1,"38.544512,-85.66831"
"529",47488,"Hamblen","IN",39.246268,-86.163826,-5,0,"39.246268,-86.163826"
"530",4033,"Freeport","ME",44.408078,-70.470703,-5,1,"44.408078,-70.470703"
"531",23191,"Zanoni","VA",37.418242,-76.508402,-5,1,"37.418242,-76.508402"
"532",23834,"Colonial Heights","VA",37.265403,-77.40438,-5,1,"37.265403,-77.40438"
"533",23839,"Dendron","VA",37.079298,-76.92155,-5,1,"37.079298,-76.92155"
"534",25140,"Naoma","WV",37.883223,-81.48001,-5,1,"37.883223,-81.48001"
"535",18221,"Drifton","PA",41.004017,-75.90569,-5,1,"41.004017,-75.90569"
"536",18825,"Jackson","PA",41.822157,-75.59506,-5,1,"41.822157,-75.59506"
"537",19115,"Philadelphia","PA",40.09261,-75.04118,-5,1,"40.09261,-75.04118"
"538",30663,"Rutledge","GA",33.614556,-83.61157,-5,1,"33.614556,-83.61157"
"539",15612,"Alverton","PA",40.136883,-79.59033,-5,1,"40.136883,-79.59033"
"540",6520,"New Haven","CT",41.365709,-72.927507,-5,1,"41.365709,-72.927507"
"541",93110,"Santa Barbara","CA",34.439579,-119.76788,-8,1,"34.439579,-119.76788"
"542",95005,"Ben Lomond","CA",37.084347,-122.08524,-8,1,"37.084347,-122.08524"
"543",95337,"Manteca","CA",37.782332,-121.23578,-8,1,"37.782332,-121.23578"
"544",98932,"Granger","WA",46.345166,-120.1843,-8,1,"46.345166,-120.1843"
"545",87184,"Albuquerque","NM",35.044339,-106.672872,-7,1,"35.044339,-106.672872"
"546",87537,"Hernandez","NM",36.094021,-106.17472,-7,1,"36.094021,-106.17472"
"547",37048,"Cottontown","TN",36.491753,-86.59963,-6,1,"36.491753,-86.59963"
"548",62549,"Mt Zion","IL",39.777116,-88.87171,-6,1,"39.777116,-88.87171"
"549",63453,"Luray","MO",40.489269,-91.87248,-6,1,"40.489269,-91.87248"
"550",63534,"Callao","MO",39.7418,-92.63582,-6,1,"39.7418,-92.63582"
"551",63834,"Charleston","MO",36.915335,-89.31308,-6,1,"36.915335,-89.31308"
"552",81658,"Vail","CO",39.624171,-106.497314,-7,1,"39.624171,-106.497314"
"553",70718,"Brittany","LA",30.201004,-90.868876,-6,1,"30.201004,-90.868876"
"554",71748,"Ivan","AR",33.97547,-92.647817,-6,1,"33.97547,-92.647817"
"555",72118,"North Little Rock","AR",34.813269,-92.30229,-6,1,"34.813269,-92.30229"
"556",78011,"Charlotte","TX",28.795637,-98.71951,-6,1,"28.795637,-98.71951"
"557",83547,"Pollock","ID",45.291282,-116.35695,-7,1,"45.291282,-116.35695"
"558",66075,"Pleasanton","KS",38.184882,-94.70142,-6,1,"38.184882,-94.70142"
"559",54931,"Dale","WI",44.416326,-88.464873,-6,1,"44.416326,-88.464873"
"560",48164,"New Boston","MI",42.128069,-83.38785,-5,1,"42.128069,-83.38785"
"561",48444,"Imlay City","MI",43.038967,-83.06067,-5,1,"43.038967,-83.06067"
"562",49245,"Homer","MI",42.147222,-84.80789,-5,1,"42.147222,-84.80789"
"563",50001,"Ackworth","IA",41.363615,-93.41494,-6,1,"41.363615,-93.41494"
"564",50128,"Jamaica","IA",41.855913,-94.29981,-6,1,"41.855913,-94.29981"
"565",38824,"Baldwyn","MS",34.511249,-88.63051,-6,1,"34.511249,-88.63051"
"566",39569,"Pascagoula","MS",30.441072,-88.634482,-6,1,"30.441072,-88.634482"
"567",40078,"Willisburg","KY",37.840066,-85.12572,-5,1,"37.840066,-85.12572"
"568",43430,"Genoa","OH",41.523309,-83.37072,-5,1,"41.523309,-83.37072"
"569",44618,"Dalton","OH",40.787827,-81.68623,-5,1,"40.787827,-81.68623"
"570",45418,"Dayton","OH",39.716161,-84.2734,-5,1,"39.716161,-84.2734"
"571",45789,"Wingett Run","OH",39.551002,-81.256,-5,1,"39.551002,-81.256"
"572",46507,"Bristol","IN",41.725061,-85.81792,-5,0,"41.725061,-85.81792"
"573",36869,"Phenix City","AL",32.433065,-85.04512,-6,1,"32.433065,-85.04512"
"574",37018,"Beechgrove","TN",35.642797,-86.1669,-6,1,"35.642797,-86.1669"
"575",37041,"Clarksville","TN",36.477428,-87.377197,-6,1,"36.477428,-87.377197"
"576",52809,"Davenport","IA",41.613034,-90.606284,-6,1,"41.613034,-90.606284"
"577",39330,"Enterprise","MS",32.170432,-88.83866,-6,1,"32.170432,-88.83866"
"578",61132,"Loves Park","IL",42.325364,-89.170527,-6,1,"42.325364,-89.170527"
"579",62903,"Carbondale","IL",37.758646,-89.415831,-6,1,"37.758646,-89.415831"
"580",72827,"Bluffton","AR",34.832089,-93.71111,-6,1,"34.832089,-93.71111"
"581",74052,"Oilton","OK",36.084211,-96.5794,-6,1,"36.084211,-96.5794"
"582",78701,"Austin","TX",30.27127,-97.74103,-6,1,"30.27127,-97.74103"
"583",79541,"Ovalo","TX",32.151983,-99.84483,-6,1,"32.151983,-99.84483"
"584",79560,"Sylvester","TX",32.684029,-100.1998,-6,1,"32.684029,-100.1998"
"585",80230,"Denver","CO",39.721763,-104.89627,-7,1,"39.721763,-104.89627"
"586",80836,"Stratton","CO",39.29782,-102.59745,-7,1,"39.29782,-102.59745"
"587",81290,"Florence","CO",38.358421,-105.106881,-7,1,"38.358421,-105.106881"
"588",74570,"Stuart","OK",34.858091,-96.09233,-6,1,"34.858091,-96.09233"
"589",76067,"Mineral Wells","TX",32.810275,-98.10707,-6,1,"32.810275,-98.10707"
"590",76476,"Tolar","TX",32.387648,-97.93959,-6,1,"32.387648,-97.93959"
"591",76561,"Oglesby","TX",31.430323,-97.52946,-6,1,"31.430323,-97.52946"
"592",64640,"Gallatin","MO",39.912973,-93.96536,-6,1,"39.912973,-93.96536"
"593",19429,"Conshohocken","PA",40.211896,-75.35586,-5,1,"40.211896,-75.35586"
"594",13788,"Hobart","NY",42.368357,-74.66452,-5,1,"42.368357,-74.66452"
"595",14717,"Caneadea","NY",42.37074,-78.19335,-5,1,"42.37074,-78.19335"
"596",25846,"Glen Jean","WV",37.927809,-81.15174,-5,1,"37.927809,-81.15174"
"597",27103,"Winston Salem","NC",36.066545,-80.30733,-5,1,"36.066545,-80.30733"
"598",30145,"Kingston","GA",34.237986,-84.97801,-5,1,"34.237986,-84.97801"
"599",30671,"Maxeys","GA",33.748344,-83.18538,-5,1,"33.748344,-83.18538"
"600",31719,"Americus","GA",32.085491,-84.252665,-5,1,"32.085491,-84.252665"
"601",32724,"Deland","FL",29.039757,-81.27927,-5,1,"29.039757,-81.27927"
"602",32757,"Mount Dora","FL",28.786272,-81.64475,-5,1,"28.786272,-81.64475"
"603",36035,"Goshen","AL",31.756986,-86.14489,-6,1,"31.756986,-86.14489"
"604",36776,"Sawyerville","AL",32.739091,-87.7417,-6,1,"32.739091,-87.7417"
"605",38844,"Gattman","MS",33.885239,-88.24591,-6,1,"33.885239,-88.24591"
"606",38954,"Sidon","MS",33.417028,-90.21318,-6,1,"33.417028,-90.21318"
"607",45814,"Arlington","OH",40.892253,-83.64338,-5,1,"40.892253,-83.64338"
"608",47369,"Pennville","IN",40.495879,-85.14637,-5,0,"40.495879,-85.14637"
"609",53932,"Fall River","WI",43.407179,-89.05837,-6,1,"43.407179,-89.05837"
"610",54022,"River Falls","WI",44.854636,-92.61729,-6,1,"44.854636,-92.61729"
"611",47851,"Fontanet","IN",39.573663,-87.24536,-5,0,"39.573663,-87.24536"
"612",50210,"New Virginia","IA",41.193148,-93.71388,-6,1,"41.193148,-93.71388"
"613",52206,"Atkins","IA",41.993799,-91.86755,-6,1,"41.993799,-91.86755"
"614",52760,"Moscow","IA",41.57371,-91.08369,-6,1,"41.57371,-91.08369"
"615",41351,"Mistletoe","KY",37.398617,-83.704908,-5,1,"37.398617,-83.704908"
"616",43014,"Danville","OH",40.470806,-82.26422,-5,1,"40.470806,-82.26422"
"617",13459,"Sharon Springs","NY",42.774077,-74.58404,-5,1,"42.774077,-74.58404"
"618",14642,"Rochester","NY",43.286024,-77.684264,-5,1,"43.286024,-77.684264"
"619",15323,"Claysville","PA",40.114204,-80.40715,-5,1,"40.114204,-80.40715"
"620",20711,"Lothian","MD",38.80884,-76.67236,-5,1,"38.80884,-76.67236"
"621",21105,"Maryland Line","MD",39.712453,-76.65069,-5,1,"39.712453,-76.65069"
"622",8629,"Trenton","NJ",40.219358,-74.73334,-5,1,"40.219358,-74.73334"
"623",10986,"Tomkins Cove","NY",41.271543,-73.98676,-5,1,"41.271543,-73.98676"
"624",29730,"Rock Hill","SC",34.914611,-81.0125,-5,1,"34.914611,-81.0125"
"625",11763,"Medford","NY",40.820786,-72.98375,-5,1,"40.820786,-72.98375"
"626",12139,"Piseco","NY",43.40276,-74.56972,-5,1,"43.40276,-74.56972"
"627",12509,"La Grange","NY",41.643599,-73.847176,-5,1,"41.643599,-73.847176"
"628",17560,"New Providence","PA",39.915209,-76.21546,-5,1,"39.915209,-76.21546"
"629",17839,"Light Street","PA",41.020062,-76.438413,-5,1,"41.020062,-76.438413"
"630",18045,"Easton","PA",40.681531,-75.26722,-5,1,"40.681531,-75.26722"
"631",76066,"Millsap","TX",32.715412,-98.00165,-6,1,"32.715412,-98.00165"
"632",81062,"Olney Springs","CO",38.193937,-103.92275,-7,1,"38.193937,-103.92275"
"633",85670,"Fort Huachuca","AZ",31.880077,-109.754263,-7,0,"31.880077,-109.754263"
"634",13503,"Utica","NY",43.101869,-75.231158,-5,1,"43.101869,-75.231158"
"635",16020,"Boyers","PA",41.10936,-79.90816,-5,1,"41.10936,-79.90816"
"636",2815,"Clayville","RI",41.777861,-71.67009,-5,1,"41.777861,-71.67009"
"637",4461,"Milford","ME",44.956776,-68.62199,-5,1,"44.956776,-68.62199"
"638",4546,"Georgetown","ME",43.767018,-69.749812,-5,1,"43.767018,-69.749812"
"639",7032,"Kearny","NJ",40.763051,-74.13718,-5,1,"40.763051,-74.13718"
"640",20690,"Tall Timbers","MD",38.165432,-76.53284,-5,1,"38.165432,-76.53284"
"641",22454,"Dunnsville","VA",37.854791,-76.81298,-5,1,"37.854791,-76.81298"
"642",75459,"Howe","TX",33.518979,-96.63523,-6,1,"33.518979,-96.63523"
"643",75904,"Lufkin","TX",31.339891,-94.76295,-6,1,"31.339891,-94.76295"
"644",77289,"Houston","TX",29.83399,-95.434241,-6,1,"29.83399,-95.434241"
"645",84719,"Brian Head","UT",37.663896,-112.81081,-7,1,"37.663896,-112.81081"
"646",91077,"Arcadia","CA",33.786594,-118.298662,-8,1,"33.786594,-118.298662"
"647",92840,"Garden Grove","CA",33.785166,-117.93406,-8,1,"33.785166,-117.93406"
"648",24639,"Raven","VA",37.136584,-81.89068,-5,1,"37.136584,-81.89068"
"649",25053,"Danville","WV",38.05738,-81.86082,-5,1,"38.05738,-81.86082"
"650",13135,"Phoenix","NY",43.235916,-76.31339,-5,1,"43.235916,-76.31339"
"651",659,"Hatillo","PR",18.432956,-66.80039,-4,0,"18.432956,-66.80039"
"652",1094,"Wheelwright","MA",42.358201,-72.140846,-5,1,"42.358201,-72.140846"
"653",2361,"Plymouth","MA",41.970474,-70.701357,-5,1,"41.970474,-70.701357"
"654",26425,"Rowlesburg","WV",39.320034,-79.68442,-5,1,"39.320034,-79.68442"
"655",41660,"Teaberry","KY",37.428801,-82.64374,-5,1,"37.428801,-82.64374"
"656",43623,"Toledo","OH",41.707649,-83.64363,-5,1,"41.707649,-83.64363"
"657",68041,"Mead","NE",41.22091,-96.47719,-6,1,"41.22091,-96.47719"
"658",68783,"Verdigre","NE",42.620877,-98.12001,-6,1,"42.620877,-98.12001"
"659",58418,"Bowdon","ND",47.42157,-99.63946,-6,1,"47.42157,-99.63946"
"660",62069,"Mount Olive","IL",39.077557,-89.73423,-6,1,"39.077557,-89.73423"
"661",37618,"Bluff City","TN",36.469605,-82.22998,-5,1,"36.469605,-82.22998"
"662",98665,"Vancouver","WA",45.681271,-122.66712,-8,1,"45.681271,-122.66712"
"663",97002,"Aurora","OR",45.234609,-122.79749,-8,1,"45.234609,-122.79749"
"664",97233,"Portland","OR",45.513242,-122.49985,-8,1,"45.513242,-122.49985"
"665",71242,"Forest","LA",32.82388,-91.398944,-6,1,"32.82388,-91.398944"
"666",76857,"May","TX",31.917862,-98.95325,-6,1,"31.917862,-98.95325"
"667",76878,"Santa Anna","TX",31.722813,-99.2959,-6,1,"31.722813,-99.2959"
"668",77478,"Sugar Land","TX",29.627737,-95.62444,-6,1,"29.627737,-95.62444"
"669",77834,"Brenham","TX",30.231333,-96.290358,-6,1,"30.231333,-96.290358"
"670",92583,"San Jacinto","CA",33.788491,-116.95125,-8,1,"33.788491,-116.95125"
"671",80940,"Colorado Springs","CO",38.82469,-104.562027,-7,1,"38.82469,-104.562027"
"672",74956,"Shady Point","OK",35.122751,-94.72058,-6,1,"35.122751,-94.72058"
"673",84073,"Talmage","UT",40.352343,-110.46935,-7,1,"40.352343,-110.46935"
"674",84316,"Howell","UT",41.773176,-112.45965,-7,1,"41.773176,-112.45965"
"675",86054,"Shonto","AZ",36.630103,-110.65072,-7,0,"36.630103,-110.65072"
"676",65707,"Miller","MO",37.220289,-93.84181,-6,1,"37.220289,-93.84181"
"677",87028,"La Joya","NM",34.34886,-106.8053,-7,1,"34.34886,-106.8053"
"678",89510,"Reno","NV",39.87107,-119.71313,-8,1,"39.87107,-119.71313"
"679",73647,"Foss","OK",35.45544,-99.1744,-6,1,"35.45544,-99.1744"
"680",46360,"Michigan City","IN",41.707539,-86.87902,-6,1,"41.707539,-86.87902"
"681",46614,"South Bend","IN",41.626588,-86.24804,-5,0,"41.626588,-86.24804"
"682",40813,"Calvin","KY",36.737835,-83.60248,-5,1,"36.737835,-83.60248"
"683",38860,"Okolona","MS",33.976464,-88.76008,-6,1,"33.976464,-88.76008"
"684",62856,"Logan","IL",37.994296,-88.941665,-6,1,"37.994296,-88.941665"
"685",62957,"McClure","IL",37.305331,-89.43066,-6,1,"37.305331,-89.43066"
"686",64436,"Cosby","MO",39.850535,-94.69403,-6,1,"39.850535,-94.69403"
"687",56127,"Dunnell","MN",43.556667,-94.77432,-6,1,"43.556667,-94.77432"
"688",58017,"Cogswell","ND",46.059066,-97.80989,-6,1,"46.059066,-97.80989"
"689",52171,"Waucoma","IA",43.068101,-92.05255,-6,1,"43.068101,-92.05255"
"690",49221,"Adrian","MI",41.900927,-84.04585,-5,1,"41.900927,-84.04585"
"691",49336,"Morley","MI",43.494361,-85.43184,-5,1,"43.494361,-85.43184"
"692",50525,"Clarion","IA",42.738313,-93.7385,-6,1,"42.738313,-93.7385"
"693",2840,"Newport","RI",41.488002,-71.31262,-5,1,"41.488002,-71.31262"
"694",4495,"Winn","ME",45.484389,-68.37662,-5,1,"45.484389,-68.37662"
"695",14301,"Niagara Falls","NY",43.096555,-79.03925,-5,1,"43.096555,-79.03925"
"696",15480,"Smock","PA",39.987054,-79.77879,-5,1,"39.987054,-79.77879"
"697",16121,"Farrell","PA",41.211606,-80.49404,-5,1,"41.211606,-80.49404"
"698",23487,"Windsor","VA",36.828408,-76.73506,-5,1,"36.828408,-76.73506"
"699",25040,"Charlton Heights","WV",38.12563,-81.24499,-5,1,"38.12563,-81.24499"
"700",19951,"Harbeson","DE",38.682345,-75.23286,-5,1,"38.682345,-75.23286"
"701",20277,"Washington","DC",38.893311,-77.014647,-5,1,"38.893311,-77.014647"
"702",22334,"Alexandria","VA",38.815762,-77.09005,-5,1,"38.815762,-77.09005"
"703",22606,"Newport News","VA",38.112139,-77.329674,-5,1,"38.112139,-77.329674"
"704",27230,"Cedar Falls","NC",35.802758,-79.879711,-5,1,"35.802758,-79.879711"
"705",27233,"Climax","NC",35.911979,-79.69566,-5,1,"35.911979,-79.69566"
"706",13082,"Kirkville","NY",43.099547,-75.9619,-5,1,"43.099547,-75.9619"
"707",76683,"Riesel","TX",31.503892,-97.179773,-6,1,"31.503892,-97.179773"
"708",76841,"Fort McKavett","TX",30.834326,-100.09843,-6,1,"30.834326,-100.09843"
"709",78827,"Asherton","TX",28.442081,-99.76064,-6,1,"28.442081,-99.76064"
"710",51451,"Lanesboro","IA",42.184035,-94.69246,-6,1,"42.184035,-94.69246"
"711",55408,"Minneapolis","MN",44.947515,-93.28742,-6,1,"44.947515,-93.28742"
"712",59212,"Bainville","MT",48.1154,-104.19036,-7,1,"48.1154,-104.19036"
"713",59902,"Kalispell","MT",48.189424,-114.143531,-7,1,"48.189424,-114.143531"
"714",60465,"Palos Hills","IL",41.699432,-87.82977,-6,1,"41.699432,-87.82977"
"715",65775,"West Plains","MO",36.719145,-91.87408,-6,1,"36.719145,-91.87408"
"716",70065,"Kenner","LA",30.022853,-90.25133,-6,1,"30.022853,-90.25133"
"717",70185,"New Orleans","LA",30.032997,-89.882564,-6,1,"30.032997,-89.882564"
"718",71751,"Louann","AR",33.397936,-92.77116,-6,1,"33.397936,-92.77116"
"719",72068,"Higginson","AR",35.169853,-91.70833,-6,1,"35.169853,-91.70833"
"720",57443,"Cambria","SD",45.697865,-98.317734,-6,1,"45.697865,-98.317734"
"721",63859,"Independence","MO",36.267961,-90.031801,-6,1,"36.267961,-90.031801"
"722",73773,"Waukomis","OK",36.273144,-97.90335,-6,1,"36.273144,-97.90335"
"723",75105,"Chatfield","TX",32.241963,-96.37917,-6,1,"32.241963,-96.37917"
"724",75615,"Longview","TX",32.51121,-94.783493,-6,1,"32.51121,-94.783493"
"725",31744,"Doerun","GA",31.325004,-83.90937,-5,1,"31.325004,-83.90937"
"726",32229,"Jacksonville","FL",30.34494,-81.683107,-5,1,"30.34494,-81.683107"
"727",32571,"Milton","FL",30.627637,-87.16724,-6,1,"30.627637,-87.16724"
"728",32706,"Cassadaga","FL",28.965591,-81.23654,-5,1,"28.965591,-81.23654"
"729",21713,"Boonsboro","MD",39.521507,-77.66056,-5,1,"39.521507,-77.66056"
"730",16341,"Pleasantville","PA",41.560056,-79.53852,-5,1,"41.560056,-79.53852"
"731",22640,"Huntly","VA",38.808303,-78.13578,-5,1,"38.808303,-78.13578"
"732",49080,"Plainwell","MI",42.462935,-85.61256,-5,1,"42.462935,-85.61256"
"733",84038,"Laketown","UT",41.797569,-111.3702,-7,1,"41.797569,-111.3702"
"734",86413,"Golden Valley","AZ",35.190896,-114.24036,-7,0,"35.190896,-114.24036"
"735",74465,"Tahlequah","OK",35.900074,-95.040008,-6,1,"35.900074,-95.040008"
"736",74345,"Grove","OK",36.603587,-94.72974,-6,1,"36.603587,-94.72974"
"737",37743,"Greeneville","TN",36.102325,-82.85446,-5,1,"36.102325,-82.85446"
"738",80946,"Colorado Springs","CO",38.82469,-104.562027,-7,1,"38.82469,-104.562027"
"739",38468,"Leoma","TN",35.135003,-87.29218,-6,1,"35.135003,-87.29218"
"740",91115,"Pasadena","CA",33.786594,-118.298662,-8,1,"33.786594,-118.298662"
"741",39566,"Ocean Springs","MS",30.441072,-88.634482,-6,1,"30.441072,-88.634482"
"742",98666,"Vancouver","WA",45.801586,-122.520347,-8,1,"45.801586,-122.520347"
"743",43986,"Jewett","OH",40.374942,-80.99193,-5,1,"40.374942,-80.99193"
"744",72338,"Frenchmans Bayou","AR",35.443275,-90.17801,-6,1,"35.443275,-90.17801"
"745",44102,"Cleveland","OH",41.473451,-81.7358,-5,1,"41.473451,-81.7358"
"746",94089,"Sunnyvale","CA",37.406289,-122.00838,-8,1,"37.406289,-122.00838"
"747",45684,"Stout","OH",38.664532,-83.29759,-5,1,"38.664532,-83.29759"
"748",65069,"Rhineland","MO",38.748204,-91.57242,-6,1,"38.748204,-91.57242"
"749",29340,"Gaffney","SC",35.03653,-81.62497,-5,1,"35.03653,-81.62497"
"750",65444,"Bucyrus","MO",37.365975,-92.07367,-6,1,"37.365975,-92.07367"
"751",29494,"Hollywood","SC",32.727638,-80.24773,-5,1,"32.727638,-80.24773"
"752",67052,"Goddard","KS",37.651845,-97.5739,-6,1,"37.651845,-97.5739"
"753",29645,"Gray Court","SC",34.601311,-82.13111,-5,1,"34.601311,-82.13111"
"754",68180,"Omaha","NE",41.291736,-96.171104,-6,1,"41.291736,-96.171104"
"755",68902,"Hastings","NE",40.589594,-98.397248,-6,1,"40.589594,-98.397248"
"756",56083,"Sanborn","MN",44.21838,-95.13348,-6,1,"44.21838,-95.13348"
"757",30364,"Atlanta","GA",33.844371,-84.47405,-5,1,"33.844371,-84.47405"
"758",72369,"Oneida","AR",34.459854,-90.78022,-6,1,"34.459854,-90.78022"
"759",10506,"Bedford","NY",41.195778,-73.62777,-5,1,"41.195778,-73.62777"
"760",71068,"Ringgold","LA",32.304429,-93.33008,-6,1,"32.304429,-93.33008"
"761",40014,"Crestwood","KY",38.335106,-85.4584,-5,1,"38.335106,-85.4584"
"762",40930,"Dewitt","KY",36.855044,-83.739,-5,1,"36.855044,-83.739"
"763",13312,"Brantingham","NY",43.689564,-75.27252,-5,1,"43.689564,-75.27252"
"764",12789,"Woodridge","NY",41.708062,-74.5698,-5,1,"41.708062,-74.5698"
"765",14472,"Honeoye Falls","NY",42.964593,-77.5919,-5,1,"42.964593,-77.5919"
"766",44878,"Shiloh","OH",40.949737,-82.52995,-5,1,"40.949737,-82.52995"
"767",95134,"San Jose","CA",37.412539,-121.94461,-8,1,"37.412539,-121.94461"
"768",35288,"Birmingham","AL",33.445808,-86.928542,-6,1,"33.445808,-86.928542"
"769",55953,"Lyle","MN",43.519177,-92.96466,-6,1,"43.519177,-92.96466"
"770",29014,"Blackstock","SC",34.552119,-81.13542,-5,1,"34.552119,-81.13542"
"771",50028,"Baxter","IA",41.820644,-93.14743,-6,1,"41.820644,-93.14743"
"772",8051,"Mantua","NJ",39.785785,-75.17761,-5,1,"39.785785,-75.17761"
"773",74145,"Tulsa","OK",36.096296,-95.8847,-6,1,"36.096296,-95.8847"
"774",38825,"Becker","MS",33.869763,-88.462173,-6,1,"33.869763,-88.462173"
"775",47882,"Sullivan","IN",39.090479,-87.40667,-5,0,"39.090479,-87.40667"
"776",39366,"Vossburg","MS",31.931474,-88.922,-6,1,"31.931474,-88.922"
"777",49023,"Benton Harbor","MI",42.001551,-86.715294,-5,1,"42.001551,-86.715294"
"778",49267,"Ottawa Lake","MI",41.757599,-83.70951,-5,1,"41.757599,-83.70951"
"779",11783,"Seaford","NY",40.679752,-73.48959,-5,1,"40.679752,-73.48959"
"780",12245,"Albany","NY",42.614852,-73.970812,-5,1,"42.614852,-73.970812"
"781",12861,"Putnam Station","NY",43.74531,-73.41569,-5,1,"43.74531,-73.41569"
"782",69135,"Elsmere","NE",42.211636,-100.2201,-6,1,"42.211636,-100.2201"
"783",6513,"New Haven","CT",41.315797,-72.8803,-5,1,"41.315797,-72.8803"
"784",7030,"Hoboken","NJ",40.744851,-74.03294,-5,1,"40.744851,-74.03294"
"785",71428,"Flora","LA",31.612444,-93.097958,-6,1,"31.612444,-93.097958"
"786",62083,"Rosamond","IL",39.354674,-89.19993,-6,1,"39.354674,-89.19993"
"787",62421,"Claremont","IL",38.755492,-87.95334,-6,1,"38.755492,-87.95334"
"788",64441,"Denver","MO",40.386181,-94.28975,-6,1,"40.386181,-94.28975"
"789",78237,"San Antonio","TX",29.422583,-98.56584,-6,1,"29.422583,-98.56584"
"790",58705,"Minot AFB","ND",48.234184,-101.297161,-6,1,"48.234184,-101.297161"
"791",60069,"Lincolnshire","IL",42.188074,-87.92717,-6,1,"42.188074,-87.92717"
"792",60667,"Chicago","IL",41.811929,-87.68732,-6,1,"41.811929,-87.68732"
"793",65446,"Cherryville","MO",37.817055,-91.26828,-6,1,"37.817055,-91.26828"
"794",92320,"Calimesa","CA",33.984551,-117.03767,-8,1,"33.984551,-117.03767"
"795",92410,"San Bernardino","CA",34.106965,-117.2975,-8,1,"34.106965,-117.2975"
"796",98326,"Clallam Bay","WA",48.181608,-124.41188,-8,1,"48.181608,-124.41188"
"797",3443,"Chesterfield","NH",42.871815,-72.47163,-5,1,"42.871815,-72.47163"
"798",4567,"Small Point","ME",43.900856,-69.859541,-5,1,"43.900856,-69.859541"
"799",5752,"Poultney","VT",43.225264,-73.141318,-5,1,"43.225264,-73.141318"
"800",5753,"Middlebury","VT",44.006024,-73.172,-5,1,"44.006024,-73.172"
"801",6382,"Uncasville","CT",41.457198,-72.11459,-5,1,"41.457198,-72.11459"
"802",1752,"Marlborough","MA",42.350909,-71.54753,-5,1,"42.350909,-71.54753"
"803",30552,"Lakemont","GA",34.763553,-83.44201,-5,1,"34.763553,-83.44201"
"804",31758,"Thomasville","GA",30.868187,-83.927785,-5,1,"30.868187,-83.927785"
"805",32831,"Orlando","FL",28.458149,-81.13666,-5,1,"28.458149,-81.13666"
"806",33009,"Hallandale","FL",25.987069,-80.15004,-5,1,"25.987069,-80.15004"
"807",13860,"West Davenport","NY",42.183045,-74.925617,-5,1,"42.183045,-74.925617"
"808",14612,"Rochester","NY",43.256462,-77.66183,-5,1,"43.256462,-77.66183"
"809",22748,"Wolftown","VA",38.372652,-78.380509,-5,1,"38.372652,-78.380509"
"810",17861,"Paxtonville","PA",40.770921,-77.08455,-5,1,"40.770921,-77.08455"
"811",18630,"Meshoppen","PA",41.653604,-76.03178,-5,1,"41.653604,-76.03178"
"812",18653,"Ransom","PA",41.393881,-75.82447,-5,1,"41.393881,-75.82447"
"813",718,"Naguabo","PR",18.22048,-65.74293,-4,0,"18.22048,-65.74293"
"814",13840,"Smithboro","NY",42.039512,-76.400376,-5,1,"42.039512,-76.400376"
"815",5085,"West Newbury","VT",44.062646,-72.13946,-5,1,"44.062646,-72.13946"
"816",95373,"Standard","CA",37.986377,-120.241412,-8,1,"37.986377,-120.241412"
"817",98387,"Spanaway","WA",47.077796,-122.40517,-8,1,"47.077796,-122.40517"
"818",90842,"Long Beach","CA",33.786594,-118.298662,-8,1,"33.786594,-118.298662"
"819",92158,"San Diego","CA",33.016928,-116.846046,-8,1,"33.016928,-116.846046"
"820",93207,"California Hot Springs","CA",35.87137,-118.6821,-8,1,"35.87137,-118.6821"
"821",96094,"Weed","CA",41.460403,-122.38544,-8,1,"41.460403,-122.38544"
"822",73141,"Oklahoma City","OK",35.498461,-97.39314,-6,1,"35.498461,-97.39314"
"823",74438,"Hitchita","OK",35.520519,-95.75122,-6,1,"35.520519,-95.75122"
"824",67481,"Sylvan Grove","KS",39.023406,-98.40165,-6,1,"39.023406,-98.40165"
"825",67575,"Rush Center","KS",38.445884,-99.26298,-6,1,"38.445884,-99.26298"
"826",64076,"Odessa","MO",38.98915,-93.95373,-6,1,"38.98915,-93.95373"
"827",64483,"Rosendale","MO",40.03722,-94.83935,-6,1,"40.03722,-94.83935"
"828",64498,"Westboro","MO",40.554988,-95.34418,-6,1,"40.554988,-95.34418"
"829",65409,"Rolla","MO",37.876191,-91.777182,-6,1,"37.876191,-91.777182"
"830",85327,"Cave Creek","AZ",33.276539,-112.18717,-7,0,"33.276539,-112.18717"
"831",85543,"Pima","AZ",32.90375,-109.84995,-7,0,"32.90375,-109.84995"
"832",60694,"Chicago","IL",41.811929,-87.68732,-6,1,"41.811929,-87.68732"
"833",60935,"Essex","IL",41.17569,-88.17268,-6,1,"41.17569,-88.17268"
"834",78146,"Pettus","TX",28.615464,-97.81591,-6,1,"28.615464,-97.81591"
"835",80266,"Denver","CO",39.747179,-104.991511,-7,1,"39.747179,-104.991511"
"836",80329,"Boulder","CO",40.087835,-105.373507,-7,1,"40.087835,-105.373507"
"837",70001,"Metairie","LA",29.984096,-90.16902,-6,1,"29.984096,-90.16902"
"838",70499,"Franklinton","LA",30.847346,-90.154156,-6,1,"30.847346,-90.154156"
"839",50116,"Hamilton","IA",41.17969,-92.94775,-6,1,"41.17969,-92.94775"
"840",50522,"Burt","IA",43.192938,-94.19512,-6,1,"43.192938,-94.19512"
"841",48277,"Detroit","MI",42.239933,-83.150823,-5,1,"42.239933,-83.150823"
"842",49248,"Jasper","MI",41.766891,-84.01395,-5,1,"41.766891,-84.01395"
"843",26369,"Hepzibah","WV",39.328064,-80.33566,-5,1,"39.328064,-80.33566"
"844",26810,"Lost City","WV",38.973027,-78.73978,-5,1,"38.973027,-78.73978"
"845",28112,"Monroe","NC",34.936388,-80.5382,-5,1,"34.936388,-80.5382"
"846",43116,"Commercial Point","OH",39.768502,-83.06007,-5,1,"39.768502,-83.06007"
"847",21250,"Baltimore","MD",39.258226,-76.713149,-5,1,"39.258226,-76.713149"
"848",4681,"Stonington","ME",44.168214,-68.66405,-5,1,"44.168214,-68.66405"
"849",5401,"Burlington","VT",44.484038,-73.22126,-5,1,"44.484038,-73.22126"
"850",14754,"Little Genesee","NY",42.020028,-78.20368,-5,1,"42.020028,-78.20368"
"851",77481,"Thompsons","TX",29.478032,-95.58329,-6,1,"29.478032,-95.58329"
"852",77976,"Nursery","TX",28.954273,-97.090604,-6,1,"28.954273,-97.090604"
"853",78545,"Falcon Heights","TX",26.561861,-99.13392,-6,1,"26.561861,-99.13392"
"854",79915,"El Paso","TX",31.743038,-106.36957,-7,1,"31.743038,-106.36957"
"855",79935,"El Paso","TX",31.784541,-106.33705,-7,1,"31.784541,-106.33705"
"856",58741,"Granville","ND",48.269326,-100.82468,-6,1,"48.269326,-100.82468"
"857",85074,"Phoenix","AZ",33.276539,-112.18717,-7,0,"33.276539,-112.18717"
"858",85258,"Scottsdale","AZ",33.566635,-111.89337,-7,0,"33.566635,-111.89337"
"859",74331,"Afton","OK",36.618326,-94.93424,-6,1,"36.618326,-94.93424"
"860",75929,"Broaddus","TX",31.242362,-94.17675,-6,1,"31.242362,-94.17675"
"861",73170,"Oklahoma City","OK",35.338716,-97.53569,-6,1,"35.338716,-97.53569"
"862",80640,"Henderson","CO",39.885202,-104.88339,-7,1,"39.885202,-104.88339"
"863",82636,"Evansville","WY",42.828639,-106.15952,-7,1,"42.828639,-106.15952"
"864",14901,"Elmira","NY",42.091924,-76.79217,-5,1,"42.091924,-76.79217"
"865",16503,"Erie","PA",42.127807,-80.06351,-5,1,"42.127807,-80.06351"
"866",17080,"Pillow","PA",40.64043,-76.80346,-5,1,"40.64043,-76.80346"
"867",32626,"Chiefland","FL",29.453178,-82.86837,-5,1,"29.453178,-82.86837"
"868",23398,"Jamesville","VA",37.534336,-75.877052,-5,1,"37.534336,-75.877052"
"869",23941,"Fort Mitchell","VA",36.948129,-78.248333,-5,1,"36.948129,-78.248333"
"870",21669,"Taylors Island","MD",38.458374,-76.30203,-5,1,"38.458374,-76.30203"
"871",17951,"Mar Lin","PA",40.679479,-76.24495,-5,1,"40.679479,-76.24495"
"872",19401,"Norristown","PA",40.123708,-75.33843,-5,1,"40.123708,-75.33843"
"873",30111,"Clarkdale","GA",33.912473,-84.557181,-5,1,"33.912473,-84.557181"
"874",12305,"Schenectady","NY",42.814476,-73.94337,-5,1,"42.814476,-73.94337"
"875",26444,"Tunnelton","WV",39.377589,-79.76428,-5,1,"39.377589,-79.76428"
"876",28018,"Bostic","NC",35.441168,-81.7995,-5,1,"35.441168,-81.7995"
"877",28109,"Misenheimer","NC",35.485703,-80.28811,-5,1,"35.485703,-80.28811"
"878",52235,"Hills","IA",41.55464,-91.53532,-6,1,"41.55464,-91.53532"
"879",52732,"Clinton","IA",41.861633,-90.21539,-6,1,"41.861633,-90.21539"
"880",55592,"Maple Plain","MN",45.200875,-93.888099,-6,1,"45.200875,-93.888099"
"881",12402,"Kingston","NY",41.878801,-74.345684,-5,1,"41.878801,-74.345684"
"882",13843,"South New Berlin","NY",42.533274,-75.38008,-5,1,"42.533274,-75.38008"
"883",24504,"Lynchburg","VA",37.400275,-79.12597,-5,1,"37.400275,-79.12597"
"884",25148,"Orgas","WV",38.04358,-81.57171,-5,1,"38.04358,-81.57171"
"885",19192,"Philadelphia","PA",39.951112,-75.167622,-5,1,"39.951112,-75.167622"
"886",19367,"Pomeroy","PA",39.964795,-75.88285,-5,1,"39.964795,-75.88285"
"887",75939,"Corrigan","TX",30.998982,-94.7994,-6,1,"30.998982,-94.7994"
"888",77592,"Texas City","TX",29.330501,-94.800238,-6,1,"29.330501,-94.800238"
"889",84657,"Sigurd","UT",38.834889,-111.943,-7,1,"38.834889,-111.943"
"890",65660,"Graff","MO",37.330625,-92.27211,-6,1,"37.330625,-92.27211"
"891",67140,"South Haven","KS",37.065497,-97.36562,-6,1,"37.065497,-97.36562"
"892",68824,"Cairo","NE",40.99858,-98.60417,-6,1,"40.99858,-98.60417"
"893",87037,"Nageezi","NM",36.17798,-107.80037,-7,1,"36.17798,-107.80037"
"894",87581,"Vallecitos","NM",36.537146,-106.13395,-7,1,"36.537146,-106.13395"
"895",89043,"Pioche","NV",38.122239,-114.40318,-8,1,"38.122239,-114.40318"
"896",78211,"San Antonio","TX",29.362185,-98.54644,-6,1,"29.362185,-98.54644"
"897",78555,"McAllen","TX",26.250709,-97.711367,-6,1,"26.250709,-97.711367"
"898",79535,"Maryneal","TX",32.249241,-100.449,-6,1,"32.249241,-100.449"
"899",79852,"Terlingua","TX",29.441286,-103.63643,-6,1,"29.441286,-103.63643"
"900",72121,"Pangburn","AR",35.432905,-91.81901,-6,1,"35.432905,-91.81901"
"901",73113,"Oklahoma City","OK",35.551409,-97.407537,-6,1,"35.551409,-97.407537"
"902",74399,"Commerce","OK",36.932944,-94.873005,-6,1,"36.932944,-94.873005"
"903",6460,"Milford","CT",41.21953,-73.0554,-5,1,"41.21953,-73.0554"
"904",7939,"Lyons","NJ",40.566553,-74.599801,-5,1,"40.566553,-74.599801"
"905",8075,"Riverside","NJ",40.029361,-74.9541,-5,1,"40.029361,-74.9541"
"906",10607,"White Plains","NY",41.041191,-73.80953,-5,1,"41.041191,-73.80953"
"907",924,"San Juan","PR",18.401917,-66.01194,-4,0,"18.401917,-66.01194"
"908",2139,"Cambridge","MA",42.364347,-71.10431,-5,1,"42.364347,-71.10431"
"909",2305,"Brockton","MA",41.970474,-70.701357,-5,1,"41.970474,-70.701357"
"910",2407,"Scituate","MA",42.136086,-70.688251,-5,1,"42.136086,-70.688251"
"911",65571,"Summersville","MO",37.184223,-91.65064,-6,1,"37.184223,-91.65064"
"912",66223,"Shawnee Mission","KS",38.860552,-94.66594,-6,1,"38.860552,-94.66594"
"913",53167,"Rochester","WI",42.742629,-88.22308,-6,1,"42.742629,-88.22308"
"914",37659,"Jonesborough","TN",36.293805,-82.49704,-5,1,"36.293805,-82.49704"
"915",29599,"Socastee","SC",33.694492,-79.011696,-5,1,"33.694492,-79.011696"
"916",13664,"Morristown","NY",44.585561,-75.64797,-5,1,"44.585561,-75.64797"
"917",15341,"Holbrook","PA",39.82644,-80.35051,-5,1,"39.82644,-80.35051"
"918",20026,"Washington","DC",38.893311,-77.014647,-5,1,"38.893311,-77.014647"
"919",22959,"North Garden","VA",37.935994,-78.64088,-5,1,"37.935994,-78.64088"
"920",41037,"Elizaville","KY",38.3481,-83.718626,-5,1,"38.3481,-83.718626"
"921",43343,"Quincy","OH",40.308916,-83.97325,-5,1,"40.308916,-83.97325"
"922",43925,"East Springfield","OH",40.450257,-80.86015,-5,1,"40.450257,-80.86015"
"923",44514,"Youngstown","OH",41.016159,-80.61549,-5,1,"41.016159,-80.61549"
"924",45412,"Dayton","OH",39.750471,-84.268593,-5,1,"39.750471,-84.268593"
"925",97640,"Summer Lake","OR",42.961806,-120.77072,-8,1,"42.961806,-120.77072"
"926",98564,"Mossyrock","WA",46.50494,-122.48668,-8,1,"46.50494,-122.48668"
"927",99128,"Farmington","ID",47.091551,-116.99158,-8,1,"47.091551,-116.99158"
"928",99336,"Kennewick","WA",46.210957,-119.16369,-8,1,"46.210957,-119.16369"
"929",56477,"Sebeka","MN",46.630023,-95.01222,-6,1,"46.630023,-95.01222"
"930",57251,"Marvin","SD",45.268329,-96.9274,-6,1,"45.268329,-96.9274"
"931",57273,"Waubay","SD",45.369654,-97.2924,-6,1,"45.369654,-97.2924"
"932",61453,"Little York","IL",41.010666,-90.75393,-6,1,"41.010666,-90.75393"
"933",62837,"Fairfield","IL",38.374627,-88.35735,-6,1,"38.374627,-88.35735"
"934",63740,"Chaffee","MO",37.182556,-89.68379,-6,1,"37.182556,-89.68379"
"935",63860,"Kewanee","MO",36.67088,-89.57338,-6,1,"36.67088,-89.57338"
"936",44233,"Hinckley","OH",41.233479,-81.73475,-5,1,"41.233479,-81.73475"
"937",44425,"Hubbard","OH",41.166743,-80.57733,-5,1,"41.166743,-80.57733"
"938",46227,"Indianapolis","IN",39.678495,-86.12973,-5,0,"39.678495,-86.12973"
"939",49653,"Lake Leelanau","MI",44.975051,-85.72325,-5,1,"44.975051,-85.72325"
"940",41503,"South Williamson","KY",37.67059,-82.28465,-5,1,"37.67059,-82.28465"
"941",36032,"Fort Deposit","AL",31.984289,-86.57087,-6,1,"31.984289,-86.57087"
"942",39272,"Jackson","MS",32.311287,-90.397157,-6,1,"32.311287,-90.397157"
"943",96849,"Honolulu","HI",24.859832,-168.021815,-10,0,"24.859832,-168.021815"
"944",98046,"Lynnwood","WA",48.037258,-121.682271,-8,1,"48.037258,-121.682271"
"945",98648,"Stevenson","WA",45.669604,-121.91332,-8,1,"45.669604,-121.91332"
"946",99767,"Rampart","AK",65.507883,-150.1636,-9,1,"65.507883,-150.1636"
"947",5060,"Randolph","VT",43.954353,-72.66916,-5,1,"43.954353,-72.66916"
"948",5481,"Saint Albans Bay","VT",44.824855,-72.895849,-5,1,"44.824855,-72.895849"
"949",1938,"Ipswich","MA",42.682965,-70.84007,-5,1,"42.682965,-70.84007"
"950",29419,"Charleston","SC",32.84885,-79.85773,-5,1,"32.84885,-79.85773"
"951",31071,"Pineview","GA",32.13702,-83.52604,-5,1,"32.13702,-83.52604"
"952",47974,"Perrysville","IN",40.043359,-87.4655,-5,0,"40.043359,-87.4655"
"953",38827,"Belmont","MS",34.513163,-88.2092,-6,1,"34.513163,-88.2092"
"954",39735,"Ackerman","MS",33.371974,-89.17616,-6,1,"33.371974,-89.17616"
"955",21904,"Port Deposit","MD",39.61881,-76.0853,-5,1,"39.61881,-76.0853"
"956",22649,"Middletown","VA",39.004774,-78.247806,-5,1,"39.004774,-78.247806"
"957",23177,"Walkerton","VA",37.728152,-76.99901,-5,1,"37.728152,-76.99901"
"958",29066,"Batesburg-Leesville","SC",33.905722,-81.530165,-5,1,"33.905722,-81.530165"
"959",30567,"Pendergrass","GA",34.167309,-83.68536,-5,1,"34.167309,-83.68536"
"960",35214,"Birmingham","AL",33.558772,-86.89199,-6,1,"33.558772,-86.89199"
"961",37010,"Adams","TN",36.569635,-87.10026,-6,1,"36.569635,-87.10026"
"962",37059,"Dowelltown","TN",35.993983,-85.92851,-6,1,"35.993983,-85.92851"
"963",37086,"La Vergne","TN",36.01333,-86.56268,-6,1,"36.01333,-86.56268"
"964",37171,"Southside","TN",36.354736,-87.30571,-6,1,"36.354736,-87.30571"
"965",37682,"Milligan College","TN",36.296007,-82.305359,-5,1,"36.296007,-82.305359"
"966",38347,"Jacks Creek","TN",35.462376,-88.50539,-6,1,"35.462376,-88.50539"
"967",18625,"Lake Winola","PA",41.509364,-75.85458,-5,1,"41.509364,-75.85458"
"968",19155,"Philadelphia","PA",40.001811,-75.11787,-5,1,"40.001811,-75.11787"
"969",20706,"Lanham","MD",38.964093,-76.85331,-5,1,"38.964093,-76.85331"
"970",21210,"Baltimore","MD",39.352496,-76.63452,-5,1,"39.352496,-76.63452"
"971",23140,"Providence Forge","VA",37.438569,-77.03578,-5,1,"37.438569,-77.03578"
"972",24899,"Yukon","WV",37.375246,-81.653889,-5,1,"37.375246,-81.653889"
"973",43150,"Rushville","OH",39.778306,-82.41455,-5,1,"39.778306,-82.41455"
"974",33499,"Boca Raton","FL",26.645895,-80.430269,-5,1,"26.645895,-80.430269"
"975",27311,"Pelham","NC",36.49076,-79.48073,-5,1,"36.49076,-79.48073"
"976",27862,"Pendleton","NC",36.490929,-77.1981,-5,1,"36.490929,-77.1981"
"977",38567,"Hickman","TN",36.140473,-85.91072,-6,1,"36.140473,-85.91072"
"978",38758,"Mattson","MS",34.095627,-90.51041,-6,1,"34.095627,-90.51041"
"979",50368,"Des Moines","IA",41.672687,-93.572173,-6,1,"41.672687,-93.572173"
"980",50559,"Lone Rock","IA",43.204803,-94.31526,-6,1,"43.204803,-94.31526"
"981",50670,"Shell Rock","IA",42.710399,-92.59746,-6,1,"42.710399,-92.59746"
"982",52237,"Hopkinton","IA",42.346132,-91.24208,-6,1,"42.346132,-91.24208"
"983",59501,"Havre","MT",48.584562,-109.78365,-7,1,"48.584562,-109.78365"
"984",67033,"Richland","KS",37.519257,-97.152533,-6,1,"37.519257,-97.152533"
"985",68278,"Omaha","NE",41.264333,-95.946368,-6,1,"41.264333,-95.946368"
"986",63821,"Arbyrd","MO",36.048279,-90.23343,-6,1,"36.048279,-90.23343"
"987",63955,"Oxly","MO",36.604837,-90.68582,-6,1,"36.604837,-90.68582"
"988",55430,"Minneapolis","MN",45.059265,-93.29977,-6,1,"45.059265,-93.29977"
"989",60684,"Chicago","IL",41.811929,-87.68732,-6,1,"41.811929,-87.68732"
"990",60931,"Donovan","IL",40.876303,-87.60159,-6,1,"40.876303,-87.60159"
"991",61553,"Norris","IL",40.449305,-90.161761,-6,1,"40.449305,-90.161761"
"992",62272,"Percy","IL",38.006386,-89.61645,-6,1,"38.006386,-89.61645"
"993",62346,"La Prairie","IL",40.151799,-90.95426,-6,1,"40.151799,-90.95426"
"994",55045,"Lindstrom","MN",45.387281,-92.83551,-6,1,"45.387281,-92.83551"
"995",73402,"Ardmore","OK",34.288884,-97.248074,-6,1,"34.288884,-97.248074"
"996",73447,"Mannsville","OK",34.225742,-96.86109,-6,1,"34.225742,-96.86109"
"997",75607,"Longview","TX",32.51121,-94.783493,-6,1,"32.51121,-94.783493"
"998",32658,"La Crosse","FL",29.845122,-82.39845,-5,1,"29.845122,-82.39845"
"999",15442,"Grindstone","PA",40.013397,-79.83113,-5,1,"40.013397,-79.83113"
"1000",7666,"Teaneck","NJ",40.890964,-74.01115,-5,1,"40.890964,-74.01115"
"1001",938,"San Juan","PR",18.410462,-66.060533,-4,0,"18.410462,-66.060533"
"1002",30370,"Atlanta","GA",33.844371,-84.47405,-5,1,"33.844371,-84.47405"
"1003",30919,"Augusta","GA",33.386041,-82.090996,-5,1,"33.386041,-82.090996"
"1004",33915,"Cape Coral","FL",26.659942,-81.893427,-5,1,"26.659942,-81.893427"
"1005",33956,"Saint James City","FL",26.536435,-82.0915,-5,1,"26.536435,-82.0915"
"1006",35490,"Vance","AL",33.197284,-87.25156,-6,1,"33.197284,-87.25156"
"1007",35771,"Section","AL",34.546397,-85.98279,-6,1,"34.546397,-85.98279"
"1008",96715,"Hanamaulu","HI",21.979991,-159.512392,-10,0,"21.979991,-159.512392"
"1009",98581,"Ryderwood","WA",46.373347,-123.05308,-8,1,"46.373347,-123.05308"
"1010",56277,"Olivia","MN",44.766441,-94.99624,-6,1,"44.766441,-94.99624"
"1011",57569,"Reliance","SD",43.839997,-99.57459,-6,1,"43.839997,-99.57459"
"1012",57790,"Wall","SD",44.018548,-102.23778,-7,1,"44.018548,-102.23778"
"1013",58319,"Bremen","ND",47.663508,-99.664406,-6,1,"47.663508,-99.664406"
"1014",58355,"Nekoma","ND",48.591846,-98.36827,-6,1,"48.591846,-98.36827"
"1015",59313,"Baker","MT",46.357253,-104.25299,-7,1,"46.357253,-104.25299"
"1016",60408,"Braidwood","IL",41.262178,-88.22307,-6,1,"41.262178,-88.22307"
"1017",78705,"Austin","TX",30.292424,-97.73856,-6,1,"30.292424,-97.73856"
"1018",93772,"Fresno","CA",36.746375,-119.639658,-8,1,"36.746375,-119.639658"
"1019",95064,"Santa Cruz","CA",37.000199,-122.06026,-8,1,"37.000199,-122.06026"
"1020",87736,"Rainsville","NM",35.974115,-105.17633,-7,1,"35.974115,-105.17633"
"1021",88047,"Mesilla Park","NM",32.213198,-106.71991,-7,1,"32.213198,-106.71991"
"1022",89146,"Las Vegas","NV",36.141119,-115.22493,-8,1,"36.141119,-115.22493"
"1023",90220,"Compton","CA",33.890566,-118.23666,-8,1,"33.890566,-118.23666"
"1024",64657,"McFall","MO",40.130633,-94.21671,-6,1,"40.130633,-94.21671"
"1025",61546,"Manito","IL",40.442037,-89.78797,-6,1,"40.442037,-89.78797"
"1026",61632,"Peoria","IL",40.765301,-89.569207,-6,1,"40.765301,-89.569207"
"1027",61870,"Ridge Farm","IL",39.90241,-87.62722,-6,1,"39.90241,-87.62722"
"1028",58442,"Gackle","ND",46.596847,-99.1616,-6,1,"46.596847,-99.1616"
"1029",58731,"Deering","ND",48.422289,-100.98409,-6,1,"48.422289,-100.98409"
"1030",54201,"Algoma","WI",44.613604,-87.46502,-6,1,"44.613604,-87.46502"
"1031",57118,"Sioux Falls","SD",43.674582,-96.79134,-6,1,"43.674582,-96.79134"
"1032",62513,"Blue Mound","IL",39.716269,-89.13269,-6,1,"39.716269,-89.13269"
"1033",49871,"Palmer","MI",46.440274,-87.58988,-5,1,"46.440274,-87.58988"
"1034",63530,"Atlanta","MO",39.911723,-92.46408,-6,1,"39.911723,-92.46408"
"1035",63367,"Lake Saint Louis","MO",38.796601,-90.78525,-6,1,"38.796601,-90.78525"
"1036",55168,"Saint Paul","MN",45.005902,-93.105869,-6,1,"45.005902,-93.105869"
"1037",78522,"Brownsville","TX",26.188911,-97.764271,-6,1,"26.188911,-97.764271"
"1038",61450,"La Harpe","IL",40.567399,-90.97066,-6,1,"40.567399,-90.97066"
"1039",62324,"Clayton","IL",39.988988,-90.94976,-6,1,"39.988988,-90.94976"
"1040",77072,"Houston","TX",29.700898,-95.59002,-6,1,"29.700898,-95.59002"
"1041",83676,"Wilder","ID",43.653878,-116.90117,-7,1,"43.653878,-116.90117"
"1042",77905,"Victoria","TX",28.737085,-97.0146,-6,1,"28.737085,-97.0146"
"1043",85227,"Chandler Heights","AZ",33.212186,-111.686171,-7,0,"33.212186,-111.686171"
"1044",85736,"Tucson","AZ",31.979764,-111.29398,-7,0,"31.979764,-111.29398"
"1045",78338,"Armstrong","TX",26.870238,-97.77433,-6,1,"26.870238,-97.77433"
"1046",79410,"Lubbock","TX",33.570135,-101.88901,-6,1,"33.570135,-101.88901"
"1047",79529,"Knox City","TX",33.423156,-99.82014,-6,1,"33.423156,-99.82014"
"1048",79561,"Trent","TX",32.504094,-100.15822,-6,1,"32.504094,-100.15822"
"1049",80538,"Loveland","CO",40.435645,-105.08726,-7,1,"40.435645,-105.08726"
"1050",97031,"Hood River","OR",45.673147,-121.5368,-8,1,"45.673147,-121.5368"
"1051",97223,"Portland","OR",45.43884,-122.78224,-8,1,"45.43884,-122.78224"
"1052",88135,"Texico","NM",34.511478,-103.06869,-7,1,"34.511478,-103.06869"
"1053",95358,"Modesto","CA",37.622898,-121.05181,-8,1,"37.622898,-121.05181"
"1054",92553,"Moreno Valley","CA",33.923243,-117.24211,-8,1,"33.923243,-117.24211"
"1055",76933,"Bronte","TX",31.887436,-100.28655,-6,1,"31.887436,-100.28655"
"1056",77631,"Orange","TX",30.054793,-93.903108,-6,1,"30.054793,-93.903108"
"1057",30450,"Portal","GA",32.555659,-81.9242,-5,1,"32.555659,-81.9242"
"1058",34974,"Okeechobee","FL",27.1944,-80.84644,-5,1,"27.1944,-80.84644"
"1059",35287,"Birmingham","AL",33.544622,-86.929208,-6,1,"33.544622,-86.929208"
"1060",35739,"Ardmore","AL",34.972309,-86.81352,-6,1,"34.972309,-86.81352"
"1061",37063,"Fosterville","TN",35.859565,-86.420958,-6,1,"35.859565,-86.420958"
"1062",38136,"Memphis","TN",35.201738,-89.971538,-6,1,"35.201738,-89.971538"
"1063",38315,"Bethel Springs","TN",35.260888,-88.64275,-6,1,"35.260888,-88.64275"
"1064",41000,"Fort Mitchell","KY",39.0358,-84.546445,-5,1,"39.0358,-84.546445"
"1065",41018,"Erlanger","KY",39.013755,-84.60229,-5,1,"39.013755,-84.60229"
"1066",14482,"Le Roy","NY",42.979887,-77.97053,-5,1,"42.979887,-77.97053"
"1067",62871,"Omaha","IL",37.877628,-88.29114,-6,1,"37.877628,-88.29114"
"1068",63057,"Liguori","MO",38.341918,-90.408223,-6,1,"38.341918,-90.408223"
"1069",71023,"Doyline","LA",32.487485,-93.39035,-6,1,"32.487485,-93.39035"
"1070",57574,"Tuthill","SD",43.126441,-101.3747,-7,1,"43.126441,-101.3747"
"1071",48768,"Vassar","MI",43.370434,-83.57917,-5,1,"43.370434,-83.57917"
"1072",14214,"Buffalo","NY",42.941407,-78.83741,-5,1,"42.941407,-78.83741"
"1073",15236,"Pittsburgh","PA",40.342869,-79.97929,-5,1,"40.342869,-79.97929"
"1074",15311,"Amity","PA",40.042851,-80.18827,-5,1,"40.042851,-80.18827"
"1075",17870,"Selinsgrove","PA",40.812047,-76.86138,-5,1,"40.812047,-76.86138"
"1076",18105,"Allentown","PA",40.693376,-75.471156,-5,1,"40.693376,-75.471156"
"1077",19901,"Dover","DE",39.16426,-75.51163,-5,1,"39.16426,-75.51163"
"1078",17253,"Saltillo","PA",40.210859,-78.00567,-5,1,"40.210859,-78.00567"
"1079",8091,"West Berlin","NJ",39.807695,-74.93392,-5,1,"39.807695,-74.93392"
"1080",8840,"Metuchen","NJ",40.543354,-74.3587,-5,1,"40.543354,-74.3587"
"1081",10268,"New York","NY",40.780751,-73.977182,-5,1,"40.780751,-73.977182"
"1082",10917,"Central Valley","NY",41.322344,-74.12354,-5,1,"41.322344,-74.12354"
"1083",667,"Lajas","PR",18.017819,-67.04226,-4,0,"18.017819,-67.04226"
"1084",1007,"Belchertown","MA",42.278424,-72.411,-5,1,"42.278424,-72.411"
"1085",29038,"Cope","SC",33.372063,-80.98409,-5,1,"33.372063,-80.98409"
"1086",29934,"Pineland","SC",32.602042,-81.12453,-5,1,"32.602042,-81.12453"
"1087",30014,"Covington","GA",33.581406,-83.851,-5,1,"33.581406,-83.851"
"1088",12784,"Thompsonville","NY",41.676139,-74.6217,-5,1,"41.676139,-74.6217"
"1089",13104,"Manlius","NY",42.987329,-75.96763,-5,1,"42.987329,-75.96763"
"1090",13208,"Syracuse","NY",43.074566,-76.14747,-5,1,"43.074566,-76.14747"
"1091",28037,"Denver","NC",35.501448,-81.00412,-5,1,"35.501448,-81.00412"
"1092",8889,"Whitehouse Station","NJ",40.612851,-74.76682,-5,1,"40.612851,-74.76682"
"1093",10547,"Mohegan Lake","NY",41.314676,-73.85118,-5,1,"41.314676,-73.85118"
"1094",46953,"Marion","IN",40.53089,-85.65922,-5,0,"40.53089,-85.65922"
"1095",47375,"Richmond","IN",39.860417,-85.015983,-5,0,"39.860417,-85.015983"
"1096",41164,"Olive Hill","KY",38.292177,-83.18381,-5,1,"38.292177,-83.18381"
"1097",41558,"Ransom","KY",37.533643,-82.21145,-5,1,"37.533643,-82.21145"
"1098",53065,"Oakfield","WI",43.689915,-88.56586,-6,1,"43.689915,-88.56586"
"1099",55985,"West Concord","MN",44.157166,-92.89357,-6,1,"44.157166,-92.89357"
"1100",56052,"Kilkenny","MN",44.320314,-93.57071,-6,1,"44.320314,-93.57071"
"1101",45617,"Bourneville","OH",39.280388,-83.158991,-5,1,"39.280388,-83.158991"
"1102",36024,"Eclectic","AL",32.697561,-86.016,-6,1,"32.697561,-86.016"
"1103",39320,"Bailey","MS",32.535472,-88.72639,-6,1,"32.535472,-88.72639"
"1104",45410,"Dayton","OH",39.748309,-84.15893,-5,1,"39.748309,-84.15893"
"1105",20439,"Washington","DC",38.893311,-77.014647,-5,1,"38.893311,-77.014647"
"1106",3592,"Pittsburg","NH",45.085547,-71.30724,-5,1,"45.085547,-71.30724"
"1107",4288,"West Minot","ME",44.197009,-70.239485,-5,1,"44.197009,-70.239485"
"1108",6250,"Mansfield Center","CT",41.768455,-72.20007,-5,1,"41.768455,-72.20007"
"1109",17257,"Shippensburg","PA",40.053308,-77.50622,-5,1,"40.053308,-77.50622"
"1110",11937,"East Hampton","NY",40.995384,-72.18564,-5,1,"40.995384,-72.18564"
"1111",12527,"Glenham","NY",41.520249,-73.933259,-5,1,"41.520249,-73.933259"
"1112",13658,"Lisbon","NY",44.744462,-75.28123,-5,1,"44.744462,-75.28123"
"1113",84072,"Tabiona","UT",40.362986,-110.70128,-7,1,"40.362986,-110.70128"
"1114",91302,"Calabasas","CA",34.133513,-118.66464,-8,1,"34.133513,-118.66464"
"1115",92220,"Banning","CA",33.920803,-116.87897,-8,1,"33.920803,-116.87897"
"1116",85061,"Phoenix","AZ",33.276539,-112.18717,-7,0,"33.276539,-112.18717"
"1117",85545,"Roosevelt","AZ",33.624008,-111.01062,-7,0,"33.624008,-111.01062"
"1118",97876,"Summerville","OR",45.52535,-118.01193,-8,1,"45.52535,-118.01193"
"1119",98560,"Matlock","WA",47.26332,-123.43097,-8,1,"47.26332,-123.43097"
"1120",95637,"Guinda","CA",38.830508,-122.19944,-8,1,"38.830508,-122.19944"
"1121",95977,"Smartville","CA",39.19322,-121.28975,-8,1,"39.19322,-121.28975"
"1122",96121,"Milford","CA",40.169038,-120.37815,-8,1,"40.169038,-120.37815"
"1123",96797,"Waipahu","HI",21.403487,-158.01389,-10,0,"21.403487,-158.01389"
"1124",78940,"Fayetteville","TX",29.941521,-96.65977,-6,1,"29.941521,-96.65977"
"1125",79761,"Odessa","TX",31.854455,-102.35906,-6,1,"31.854455,-102.35906"
"1126",79961,"El Paso","TX",31.694842,-106.299987,-7,1,"31.694842,-106.299987"
"1127",51647,"Northboro","IA",40.599361,-95.36419,-6,1,"40.599361,-95.36419"
"1128",54741,"Fairchild","WI",44.601345,-90.98854,-6,1,"44.601345,-90.98854"
"1129",55306,"Burnsville","MN",44.732569,-93.28909,-6,1,"44.732569,-93.28909"
"1130",55341,"Hanover","MN",45.15546,-93.66369,-6,1,"45.15546,-93.66369"
"1131",55470,"Minneapolis","MN",45.015914,-93.47188,-6,1,"45.015914,-93.47188"
"1132",67132,"Rosalia","KS",37.813869,-96.57856,-6,1,"37.813869,-96.57856"
"1133",63111,"Saint Louis","MO",38.559302,-90.25174,-6,1,"38.559302,-90.25174"
"1134",63666,"Reynolds","MO",37.327153,-91.024337,-6,1,"37.327153,-91.024337"
"1135",48109,"Ann Arbor","MI",42.291637,-83.71831,-5,1,"42.291637,-83.71831"
"1136",50117,"Hamlin","IA",41.671777,-94.84924,-6,1,"41.671777,-94.84924"
"1137",50332,"Des Moines","IA",41.672687,-93.572173,-6,1,"41.672687,-93.572173"
"1138",51050,"Remsen","IA",42.786134,-95.9482,-6,1,"42.786134,-95.9482"
"1139",34260,"Manasota","FL",27.427213,-82.438689,-5,1,"27.427213,-82.438689"
"1140",39476,"Richton","MS",31.355717,-88.85881,-6,1,"31.355717,-88.85881"
"1141",4988,"Unity","ME",44.60509,-69.33022,-5,1,"44.60509,-69.33022"
"1142",6836,"Greenwich","CT",41.308873,-73.363661,-5,1,"41.308873,-73.363661"
"1143",6907,"Stamford","CT",41.096846,-73.52128,-5,1,"41.096846,-73.52128"
"1144",90065,"Los Angeles","CA",34.107559,-118.22663,-8,1,"34.107559,-118.22663"
"1145",98133,"Seattle","WA",47.733852,-122.34461,-8,1,"47.733852,-122.34461"
"1146",82635,"Edgerton","WY",43.410459,-106.2421,-7,1,"43.410459,-106.2421"
"1147",85230,"Casa Grande","AZ",32.742949,-111.78945,-7,0,"32.742949,-111.78945"
"1148",85261,"Scottsdale","AZ",33.276539,-112.18717,-7,0,"33.276539,-112.18717"
"1149",75980,"Zavalla","TX",31.154673,-94.363,-6,1,"31.154673,-94.363"
"1150",76040,"Euless","TX",32.826172,-97.09721,-6,1,"32.826172,-97.09721"
"1151",76048,"Granbury","TX",32.424695,-97.78894,-6,1,"32.424695,-97.78894"
"1152",76642,"Groesbeck","TX",31.510726,-96.51529,-6,1,"31.510726,-96.51529"
"1153",76854,"London","TX",30.646698,-99.54107,-6,1,"30.646698,-99.54107"
"1154",93303,"Bakersfield","CA",35.294405,-118.905173,-8,1,"35.294405,-118.905173"
"1155",93915,"Salinas","CA",36.35433,-121.132928,-8,1,"36.35433,-121.132928"
"1156",93925,"Chualar","CA",36.581329,-121.46597,-8,1,"36.581329,-121.46597"
"1157",79980,"El Paso","TX",31.694842,-106.299987,-7,1,"31.694842,-106.299987"
"1158",90502,"Torrance","CA",33.833416,-118.29198,-8,1,"33.833416,-118.29198"
"1159",92022,"El Cajon","CA",33.016928,-116.846046,-8,1,"33.016928,-116.846046"
"1160",71461,"Newllano","LA",31.114793,-93.27979,-6,1,"31.114793,-93.27979"
"1161",13688,"South Rutland","NY",43.951666,-75.767772,-5,1,"43.951666,-75.767772"
"1162",14138,"South Dayton","NY",42.372077,-79.05552,-5,1,"42.372077,-79.05552"
"1163",8071,"Pitman","NJ",39.730964,-75.13009,-5,1,"39.730964,-75.13009"
"1164",8862,"Perth Amboy","NJ",40.430006,-74.417344,-5,1,"40.430006,-74.417344"
"1165",2146,"Brookline","MA",42.308198,-71.088745,-5,1,"42.308198,-71.088745"
"1166",2344,"Middleboro","MA",41.970474,-70.701357,-5,1,"41.970474,-70.701357"
"1167",2805,"Foster","RI",41.830469,-71.711713,-5,1,"41.830469,-71.711713"
"1168",2829,"Harmony","RI",41.879298,-71.589357,-5,1,"41.879298,-71.589357"
"1169",5233,"Sudbury","VT",43.761499,-73.187699,-5,1,"43.761499,-73.187699"
"1170",5760,"Orwell","VT",43.801501,-73.2869,-5,1,"43.801501,-73.2869"
"1171",6101,"Hartford","CT",41.78007,-72.677099,-5,1,"41.78007,-72.677099"
"1172",7735,"Keyport","NJ",40.439714,-74.19374,-5,1,"40.439714,-74.19374"
"1173",16827,"Boalsburg","PA",40.78267,-77.78689,-5,1,"40.78267,-77.78689"
"1174",17035,"Honey Grove","PA",40.4305,-77.5843,-5,1,"40.4305,-77.5843"
"1175",99624,"Larsen Bay","AK",57.529161,-154.00286,-9,1,"57.529161,-154.00286"
"1176",44643,"Magnolia","OH",40.646529,-81.30882,-5,1,"40.646529,-81.30882"
"1177",26525,"Bruceton Mills","WV",39.646876,-79.59847,-5,1,"39.646876,-79.59847"
"1178",27808,"Bath","NC",35.47031,-76.77855,-5,1,"35.47031,-76.77855"
"1179",33082,"Pembroke Pines","FL",26.145724,-80.448254,-5,1,"26.145724,-80.448254"
"1180",16037,"Harmony","PA",40.821535,-80.13033,-5,1,"40.821535,-80.13033"
"1181",17834,"Kulpmont","PA",40.792365,-76.47131,-5,1,"40.792365,-76.47131"
"1182",6468,"Monroe","CT",41.336046,-73.22241,-5,1,"41.336046,-73.22241"
"1183",7763,"Tennent","NJ",40.302718,-74.24928,-5,1,"40.302718,-74.24928"
"1184",8827,"Hampton","NJ",40.677404,-74.96875,-5,1,"40.677404,-74.96875"
"1185",12233,"Albany","NY",42.614852,-73.970812,-5,1,"42.614852,-73.970812"
"1186",12515,"Clintondale","NY",41.681096,-74.06421,-5,1,"41.681096,-74.06421"
"1187",22406,"Fredericksburg","VA",38.387261,-77.54676,-5,1,"38.387261,-77.54676"
"1188",3826,"East Hampstead","NH",42.890357,-71.12296,-5,1,"42.890357,-71.12296"
"1189",4554,"New Harbor","ME",43.863028,-69.51314,-5,1,"43.863028,-69.51314"
"1190",13638,"Felts Mills","NY",44.021094,-75.76113,-5,1,"44.021094,-75.76113"
"1191",14054,"East Bethany","NY",42.903676,-78.13481,-5,1,"42.903676,-78.13481"
"1192",15321,"Cecil","PA",40.322872,-80.18745,-5,1,"40.322872,-80.18745"
"1193",20918,"Silver Spring","MD",39.143979,-77.207617,-5,1,"39.143979,-77.207617"
"1194",21161,"White Hall","MD",39.659671,-76.56859,-5,1,"39.659671,-76.56859"
"1195",1929,"Essex","MA",42.631753,-70.77925,-5,1,"42.631753,-70.77925"
"1196",2724,"Fall River","MA",41.684152,-71.17436,-5,1,"41.684152,-71.17436"
"1197",24974,"Secondcreek","WV",37.665867,-80.44338,-5,1,"37.665867,-80.44338"
"1198",76648,"Hubbard","TX",31.84121,-96.80817,-6,1,"31.84121,-96.80817"
"1199",77216,"Houston","TX",29.83399,-95.434241,-6,1,"29.83399,-95.434241"
"1200",65344,"Miami","MO",39.310853,-93.22589,-6,1,"39.310853,-93.22589"
"1201",66711,"Arcadia","KS",37.644301,-94.64895,-6,1,"37.644301,-94.64895"
"1202",66853,"Hamilton","KS",38.000062,-96.21271,-6,1,"38.000062,-96.21271"
"1203",67022,"Caldwell","KS",37.062453,-97.60782,-6,1,"37.062453,-97.60782"
"1204",67051,"Geuda Springs","KS",37.104798,-97.19239,-6,1,"37.104798,-97.19239"
"1205",16368,"Irvine","PA",41.811682,-79.264322,-5,1,"41.811682,-79.264322"
"1206",19075,"Oreland","PA",40.11461,-75.18632,-5,1,"40.11461,-75.18632"
"1207",24431,"Crimora","VA",38.167914,-78.84222,-5,1,"38.167914,-78.84222"
"1208",24901,"Lewisburg","WV",37.80848,-80.44493,-5,1,"37.80848,-80.44493"
"1209",26034,"Chester","WV",40.609272,-80.55893,-5,1,"40.609272,-80.55893"
"1210",26574,"Grant Town","WV",39.558702,-80.17617,-5,1,"39.558702,-80.17617"
"1211",27553,"Manson","NC",36.484233,-78.30615,-5,1,"36.484233,-78.30615"
"1212",5747,"Granville","VT",43.999811,-72.83927,-5,1,"43.999811,-72.83927"
"1213",7974,"New Providence","NJ",40.698268,-74.40225,-5,1,"40.698268,-74.40225"
"1214",13333,"East Springfield","NY",42.843048,-74.80882,-5,1,"42.843048,-74.80882"
"1215",29545,"Green Sea","SC",34.164187,-78.96696,-5,1,"34.164187,-78.96696"
"1216",13820,"Oneonta","NY",42.469761,-75.05192,-5,1,"42.469761,-75.05192"
"1217",14437,"Dansville","NY",42.576771,-77.71925,-5,1,"42.576771,-77.71925"
"1218",15285,"Pittsburgh","PA",40.434436,-80.024817,-5,1,"40.434436,-80.024817"
"1219",35765,"Pisgah","AL",34.695645,-85.80484,-6,1,"34.695645,-85.80484"
"1220",35813,"Huntsville","AL",34.733964,-86.522913,-6,1,"34.733964,-86.522913"
"1221",37885,"Vonore","TN",35.543355,-84.1933,-5,1,"35.543355,-84.1933"
"1222",43811,"Conesville","OH",40.180136,-81.90422,-5,1,"40.180136,-81.90422"
"1223",44706,"Canton","OH",40.776858,-81.40593,-5,1,"40.776858,-81.40593"
"1224",45142,"Lynchburg","OH",39.213112,-83.80743,-5,1,"39.213112,-83.80743"
"1225",46051,"Lapel","IN",40.065589,-85.84631,-5,0,"40.065589,-85.84631"
"1226",46590,"Winona Lake","IN",41.22163,-85.81795,-5,0,"41.22163,-85.81795"
"1227",28645,"Lenoir","NC",35.934783,-81.54476,-5,1,"35.934783,-81.54476"
"1228",29065,"Jenkinsville","SC",34.295632,-81.30068,-5,1,"34.295632,-81.30068"
"1229",29644,"Fountain Inn","SC",34.681279,-82.19732,-5,1,"34.681279,-82.19732"
"1230",26590,"Wana","WV",39.704464,-80.27178,-5,1,"39.704464,-80.27178"
"1231",31822,"Pine Mountain","GA",32.867211,-84.88437,-5,1,"32.867211,-84.88437"
"1232",31906,"Columbus","GA",32.468442,-84.95128,-5,1,"32.468442,-84.95128"
"1233",98613,"Centerville","WA",45.722786,-120.96163,-8,1,"45.722786,-120.96163"
"1234",81429,"Paradox","CO",38.371101,-108.969823,-7,1,"38.371101,-108.969823"
"1235",85390,"Wickenburg","AZ",33.961122,-112.76952,-7,0,"33.961122,-112.76952"
"1236",86045,"Tuba City","AZ",36.061184,-111.06828,-7,0,"36.061184,-111.06828"
"1237",76107,"Fort Worth","TX",32.738481,-97.38424,-6,1,"32.738481,-97.38424"
"1238",77347,"Humble","TX",29.83399,-95.434241,-6,1,"29.83399,-95.434241"
"1239",95318,"El Portal","CA",37.673629,-119.81305,-8,1,"37.673629,-119.81305"
"1240",87937,"Hatch","NM",32.603957,-107.16806,-7,1,"32.603957,-107.16806"
"1241",79740,"Girvin","TX",31.019602,-102.47675,-6,1,"31.019602,-102.47675"
"1242",62655,"Kilbourne","IL",40.147371,-90.00698,-6,1,"40.147371,-90.00698"
"1243",65461,"Duke","MO",37.68574,-92.04337,-6,1,"37.68574,-92.04337"
"1244",56528,"Dent","MN",46.528138,-95.79661,-6,1,"46.528138,-95.79661"
"1245",66548,"Waterville","KS",39.691428,-96.76189,-6,1,"39.691428,-96.76189"
"1246",60125,"Carol Stream","IL",41.839679,-88.088716,-6,1,"41.839679,-88.088716"
"1247",60922,"Chebanse","IL",41.005603,-87.90649,-6,1,"41.005603,-87.90649"
"1248",61329,"Ladd","IL",41.380259,-89.21239,-6,1,"41.380259,-89.21239"
"1249",62257,"Marissa","IL",38.260108,-89.73627,-6,1,"38.260108,-89.73627"
"1250",55730,"Grand Rapids","MN",47.087782,-93.921429,-6,1,"47.087782,-93.921429"
"1251",20506,"Washington","DC",38.899364,-77.037668,-5,1,"38.899364,-77.037668"
"1252",78066,"Rio Medina","TX",29.466279,-98.89162,-6,1,"29.466279,-98.89162"
"1253",64489,"Stanberry","MO",40.218842,-94.5455,-6,1,"40.218842,-94.5455"
"1254",65723,"Pierce City","MO",36.956471,-94.02134,-6,1,"36.956471,-94.02134"
"1255",67202,"Wichita","KS",37.686992,-97.33362,-6,1,"37.686992,-97.33362"
"1256",74557,"Moyers","OK",34.391572,-95.67366,-6,1,"34.391572,-95.67366"
"1257",75255,"Dallas","TX",32.669783,-96.614921,-6,1,"32.669783,-96.614921"
"1258",75477,"Roxton","TX",33.543006,-95.72382,-6,1,"33.543006,-95.72382"
"1259",75791,"Whitehouse","TX",32.226082,-95.21751,-6,1,"32.226082,-95.21751"
"1260",64454,"Gower","MO",39.61222,-94.5929,-6,1,"39.61222,-94.5929"
"1261",80835,"Simla","CO",39.172831,-104.08793,-7,1,"39.172831,-104.08793"
"1262",82512,"Crowheart","WY",43.428698,-109.21806,-7,1,"43.428698,-109.21806"
"1263",56710,"Alvarado","MN",48.192532,-96.9986,-6,1,"48.192532,-96.9986"
"1264",90847,"Long Beach","CA",33.786594,-118.298662,-8,1,"33.786594,-118.298662"
"1265",92501,"Riverside","CA",33.991181,-117.37074,-8,1,"33.991181,-117.37074"
"1266",92539,"Anza","CA",33.55055,-116.67362,-8,1,"33.55055,-116.67362"
"1267",92880,"Corona","CA",33.903803,-117.60221,-8,1,"33.903803,-117.60221"
"1268",99117,"Creston","WA",47.757764,-118.49343,-8,1,"47.757764,-118.49343"
"1269",99514,"Anchorage","AK",61.108864,-149.440311,-9,1,"61.108864,-149.440311"
"1270",49918,"Copper Harbor","MI",47.467597,-87.88212,-5,1,"47.467597,-87.88212"
"1271",50475,"Sheffield","IA",42.88516,-93.22082,-6,1,"42.88516,-93.22082"
"1272",66763,"Frontenac","KS",37.455819,-94.69088,-6,1,"37.455819,-94.69088"
"1273",67012,"Beaumont","KS",37.660135,-96.53372,-6,1,"37.660135,-96.53372"
"1274",53194,"Woodworth","WI",42.58098,-87.662878,-6,1,"42.58098,-87.662878"
"1275",15713,"Aultman","PA",40.56265,-79.25965,-5,1,"40.56265,-79.25965"
"1276",16255,"Sligo","PA",41.115411,-79.46865,-5,1,"41.115411,-79.46865"
"1277",18991,"Warminster","PA",40.328645,-75.10278,-5,1,"40.328645,-75.10278"
"1278",67217,"Wichita","KS",37.62421,-97.36312,-6,1,"37.62421,-97.36312"
"1279",6374,"Plainfield","CT",41.684777,-71.91911,-5,1,"41.684777,-71.91911"
"1280",69218,"Merriman","NE",42.848109,-101.65674,-7,1,"42.848109,-101.65674"
"1281",69352,"Lyman","NE",41.849619,-103.99465,-7,1,"41.849619,-103.99465"
"1282",49720,"Charlevoix","MI",45.294169,-85.24516,-5,1,"45.294169,-85.24516"
"1283",49793,"Trout Lake","MI",46.199197,-85.05287,-5,1,"46.199197,-85.05287"
"1284",73147,"Oklahoma City","OK",35.551409,-97.407537,-6,1,"35.551409,-97.407537"
"1285",74864,"Prague","OK",35.490727,-96.69141,-6,1,"35.490727,-96.69141"
"1286",63357,"Marthasville","MO",38.647611,-91.09159,-6,1,"38.647611,-91.09159"
"1287",63348,"Foristell","MO",38.814432,-90.94433,-6,1,"38.814432,-90.94433"
"1288",63956,"Patterson","MO",37.199631,-90.52353,-6,1,"37.199631,-90.52353"
"1289",68572,"Lincoln","NE",40.784451,-96.688799,-6,1,"40.784451,-96.688799"
"1290",72727,"Elkins","AR",35.970492,-93.94296,-6,1,"35.970492,-93.94296"
"1291",71914,"Hot Springs National Park","AR",34.513682,-92.968531,-6,1,"34.513682,-92.968531"
"1292",92024,"Encinitas","CA",33.053092,-117.26855,-8,1,"33.053092,-117.26855"
"1293",93035,"Oxnard","CA",34.179304,-119.22189,-8,1,"34.179304,-119.22189"
"1294",82649,"Shoshoni","WY",43.232318,-108.15555,-7,1,"43.232318,-108.15555"
"1295",77901,"Victoria","TX",28.806417,-96.99356,-6,1,"28.806417,-96.99356"
"1296",84025,"Farmington","UT",40.988347,-111.88847,-7,1,"40.988347,-111.88847"
